agency_cd,site_no,station_nm,dec_lat_va,dec_long_va,huc_cd,data_type_cd,parm_cd,stat_cd,begin_date,end_date,count_nu,early_enough,state_cd,drain_area_va,city,city_pop
USGS,08083420,"Cat Claw Ck at Abilene, TX",32.47540219,-99.7492556,12060102,dv,00060,00003,1970-10-01,2020-01-30,10104,TRUE,48,13,Abilene TX,113888
USGS,08083470,"Cedar Ck at Abilene, TX",32.4490142,-99.7206435,12060102,dv,00060,00003,1970-10-01,1984-10-09,5123,TRUE,48,119,Abilene TX,113888
USGS,04204500,Little Cuyahoga River at Massillon Rd Akron OH,41.0603339,-81.4631691,04110002,dv,00060,00003,1945-11-14,1974-09-29,10470,TRUE,39,31.6,Akron OH,206634
USGS,04204500,Little Cuyahoga River at Massillon Rd Akron OH,41.0603339,-81.4631691,04110002,qw,00060,NA,1965-09-08,1971-09-17,23,TRUE,39,31.6,Akron OH,206634
USGS,04205000,Springfield Lake outlet at Akron OH,41.05588945,-81.4642803,04110002,dv,00060,00003,1945-11-14,1974-09-29,6345,TRUE,39,9.72,Akron OH,206634
USGS,04205000,Springfield Lake outlet at Akron OH,41.05588945,-81.4642803,04110002,qw,00060,NA,1965-09-08,1971-09-16,25,TRUE,39,9.72,Akron OH,206634
USGS,04205500,Little Cuyahoga River at Akron OH,41.0595005,-81.4753919,04110002,dv,00060,00003,1920-07-10,1934-04-30,2486,TRUE,39,44.4,Akron OH,206634
USGS,04205700,Little Cuyahoga River below O&E Canal at Akron OH,41.09450025,-81.5215053,04110002,dv,00060,00003,1973-10-01,1979-11-20,2242,TRUE,39,59.2,Akron OH,206634
USGS,11181300,PERALTA C A OAKLAND CA,37.78298369,-122.2194124,18050004,dv,00060,00003,1972-10-01,1973-07-17,290,TRUE,06,1.67,Alameda CA,70069
USGS,02352500,"FLINT RIVER AT ALBANY, GA",31.59416667,-84.1441667,03130008,dv,00060,00003,1901-10-01,2020-01-30,40207,TRUE,13,5310,Albany GA,75510
USGS,02352500,"FLINT RIVER AT ALBANY, GA",31.59416667,-84.1441667,03130008,qw,00060,NA,1938-01-19,1973-07-23,38,TRUE,13,5310,Albany GA,75510
USGS,02352500,"FLINT RIVER AT ALBANY, GA",31.59416667,-84.1441667,03130008,qw,00060,NA,1957-10-12,1973-07-23,37,TRUE,13,5310,Albany GA,75510
USGS,01359528,NORMANS KILL AT ALBANY NY,42.63363889,-73.80427778,02020006,dv,00060,00003,1979-05-15,2020-01-30,3805,TRUE,36,168,Albany NY,93576
USGS,14173500,"CALAPOOIA RIVER AT ALBANY, OR",44.62067728,-123.1289843,17090003,dv,00060,00003,1940-10-01,1981-12-10,15027,TRUE,41,372,Albany OR,45535
USGS,14174000,"WILLAMETTE RIVER AT ALBANY, OR",44.6387328,-123.1067616,17090003,dv,00060,00003,1892-11-01,2020-01-30,46384,TRUE,41,4840,Albany OR,45535
USGS,08329840,"HAHN ARROYO IN ALBUQUERQUE, NM",35.12587778,-106.5903028,13020203,dv,00060,00003,1978-06-21,2020-01-30,8492,TRUE,35,4.23,Albuquerque NM,494962
USGS,08329860,"GRANT LINE ARROYO AT VILLA DEL OSO, NM",35.13448974,-106.571691,13020203,dv,00060,00003,1976-06-21,1995-09-29,4636,TRUE,35,0.08,Albuquerque NM,494962
USGS,07355500,"RED R @ ALEXANDRIA, LA",31.31296019,-92.4429148,08040301,dv,00060,00003,1928-10-01,1983-09-29,20087,TRUE,22,67500,Alexandria LA,44933
USGS,07355500,"RED R @ ALEXANDRIA, LA",31.31296019,-92.4429148,08040301,qw,00060,NA,1952-04-10,1987-07-28,440,TRUE,22,67500,Alexandria LA,44933
USGS,01652500,"FOURMILE RUN AT ALEXANDRIA, VA",38.8433333,-77.0858611,02070010,dv,00060,00003,1951-05-04,2020-01-30,16510,TRUE,51,12.6,Alexandria VA,127159
USGS,01653000,"CAMERON RUN AT ALEXANDRIA, VA",38.8065021,-77.1097011,02070010,dv,00060,00003,1955-06-01,2020-01-30,21245,TRUE,51,33.9,Alexandria VA,127159
USGS,11101380,ALHAMBRA WASH A KLINGERMAN ST NR MONTEBELLO CA,34.06362138,-118.0895132,18070105,dv,00060,00003,1975-10-01,1979-09-29,1460,TRUE,06,15.2,Alhambra CA,88857
USGS,01451500,"Little Lehigh Creek near Allentown, PA",40.5823197,-75.48296088,02040106,dv,00060,00003,1945-10-01,2020-01-30,27150,TRUE,42,80.8,Allentown PA,105224
USGS,01451500,"Little Lehigh Creek near Allentown, PA",40.5823197,-75.48296088,02040106,qw,00060,NA,1960-04-26,1971-04-30,59,TRUE,42,80.8,Allentown PA,105224
USGS,01452000,"Jordan Creek at Allentown, PA",40.62315267,-75.4824053,02040106,dv,00060,00003,1944-10-01,2020-01-30,27514,TRUE,42,75.8,Allentown PA,105224
USGS,01452000,"Jordan Creek at Allentown, PA",40.62315267,-75.4824053,02040106,qw,00060,NA,1959-10-22,1971-04-29,57,TRUE,42,75.8,Allentown PA,105224
USGS,11098000,ARROYO SECO NR PASADENA CA,34.22222629,-118.1775727,18070105,dv,00060,00003,1910-12-01,2020-01-30,39434,TRUE,06,16,Altadena CA,43280
USGS,11101000,EATON C NR PASADENA CA,34.1936162,-118.1045143,18070105,dv,00060,00003,1918-02-01,1966-09-29,17773,TRUE,06,6.47,Altadena CA,43280
USGS,02234990,"LITTLE WEKIVA RIVER NEAR ALTAMONTE SPRINGS, FL",28.6872192,-81.3970138,03080101,dv,00060,00003,1972-02-01,2020-01-30,16434,TRUE,12,42.4,Altamonte Springs FL,40712
USGS,05470500,"Squaw Creek at Ames, IA",42.02304157,-93.6304962,07080105,dv,00060,00003,1919-05-24,2020-01-29,23024,TRUE,19,204,Ames IA,57683
USGS,05470500,"Squaw Creek at Ames, IA",42.02304157,-93.6304962,07080105,qw,00060,NA,1969-11-06,1973-09-19,47,TRUE,19,204,Ames IA,57683
USGS,05471000,"South Skunk River below Squaw Creek near Ames, IA",42.00665328,-93.595495,07080105,dv,00060,00003,1952-10-01,2020-01-29,19950,TRUE,19,556,Ames IA,57683
USGS,05471000,"South Skunk River below Squaw Creek near Ames, IA",42.00665328,-93.595495,07080105,qw,00060,NA,1969-11-06,1973-09-19,49,TRUE,19,556,Ames IA,57683
USGS,11075755,SANTA ANA R A BALL RD AT ANAHEIM CA,33.81668264,-117.87227970000001,18070203,dv,00060,00003,1976-10-01,1988-04-30,4230,TRUE,06,1587,Anaheim CA,334909
USGS,11075760,SANTA ANA R NR KATELLA AVENUE A ORANGE CA,33.80223845,-117.8783908,18070203,dv,00060,00003,1974-01-01,1976-09-29,1003,TRUE,06,1593,Anaheim CA,334909
USGS,11090000,FULLERTON C A FULLERTON CA,33.87279245,-117.9070042,18070106,dv,00060,00003,1935-10-01,1964-05-31,10471,TRUE,06,7.5,Anaheim CA,334909
USGS,03348000,"WHITE RIVER AT ANDERSON, IN",40.10527778,-85.67138889,05120201,dv,00060,00003,1925-10-01,2020-01-29,27758,TRUE,18,406,Anderson IN,57036
USGS,04174500,"HURON RIVER AT ANN ARBOR, MI",42.28698238,-83.733829600000007,04090005,dv,00060,00003,1914-01-01,2020-01-30,38441,TRUE,26,729,Ann Arbor MI,113716
USGS,01654000,"ACCOTINK CREEK NEAR ANNANDALE, VA",38.81289066,-77.2283158,02070010,dv,00060,00003,1947-10-01,2020-01-30,26419,TRUE,51,23.9,Annandale VA,57942
USGS,01654500,"LONG BRANCH NEAR ANNANDALE, VA",38.8109462,-77.2349827,02070010,dv,00060,00003,1947-10-01,2020-01-30,5836,TRUE,51,3.72,Annandale VA,57942
USGS,11100760,ARCADIA WASH A GRAND AVE A ARCADIA CA,34.0961197,-118.0345114,18070105,dv,00060,00003,1974-02-07,1975-02-05,364,TRUE,06,8.5,Arcadia CA,57429
USGS,11447000,AMERICAN R A SACRAMENTO CA,38.5679613,-121.4232867,18020111,dv,00060,00003,1943-10-01,1959-09-29,5843,TRUE,06,1936,Arden-Arcade CA,99968
USGS,11447000,AMERICAN R A SACRAMENTO CA,38.5679613,-121.4232867,18020111,qw,00060,NA,1960-10-07,1980-09-03,93,TRUE,06,1936,Arden-Arcade CA,99968
USGS,11447030,STRONG RANCH SLOUGH A SACRAMENTO CA,38.60240499,-121.3955082,18020111,dv,00060,00003,1972-09-19,1975-04-30,679,TRUE,06,5.02,Arden-Arcade CA,99968
USGS,05530990,"SALT CREEK AT ROLLING MEADOWS, IL",42.06055556,-88.0166667,07120004,dv,00060,00003,1973-07-12,2020-01-30,17004,TRUE,17,30.5,Arlington Heights IL,74763
USGS,05530990,"SALT CREEK AT ROLLING MEADOWS, IL",42.06055556,-88.0166667,07120004,uv,00060,NA,1978-06-30,2020-01-31,15190,TRUE,17,30.5,Arlington Heights IL,74763
USGS,05531000,"SALT CREEK NEAR ARLINGTON HEIGHTS, IL",42.0508333,-88.01,07120004,dv,00060,00003,1950-08-01,1973-09-30,8096,TRUE,17,32.1,Arlington Heights IL,74763
USGS,01102500,"ABERJONA RIVER AT WINCHESTER, MA",42.4474568,-71.1380816,01090001,dv,00060,00003,1939-04-16,2020-01-30,29508,TRUE,25,24.5,Arlington MA,41246
USGS,01649000,"ROCK CREEK AT Q STREET, WASHINGTON  DC",38.9112226,-77.0513661,02070010,dv,00060,00003,1892-08-18,1933-09-29,1949,TRUE,11,75.8,Arlington VA,184603
USGS,01652500,"FOURMILE RUN AT ALEXANDRIA, VA",38.8433333,-77.0858611,02070010,dv,00060,00003,1951-05-04,2020-01-30,16510,TRUE,51,12.6,Arlington VA,184603
USGS,03451000,"SWANNANOA RIVER AT BILTMORE, NC",35.5683333,-82.5447222,06010105,dv,00060,00003,1920-10-01,2020-01-30,33480,TRUE,37,130,Asheville NC,68654
USGS,03451500,"FRENCH BROAD RIVER AT ASHEVILLE, NC",35.60888889,-82.5780556,06010105,dv,00060,00003,1895-10-01,2020-01-30,45412,TRUE,37,945,Asheville NC,68654
USGS,03451500,"FRENCH BROAD RIVER AT ASHEVILLE, NC",35.60888889,-82.5780556,06010105,qw,00060,NA,1956-10-17,1973-02-22,89,TRUE,37,945,Asheville NC,68654
USGS,03451500,"FRENCH BROAD RIVER AT ASHEVILLE, NC",35.60888889,-82.5780556,06010105,qw,00060,NA,1968-05-22,1973-02-22,17,TRUE,37,945,Asheville NC,68654
USGS,01647720,"NORTH BRANCH ROCK CREEK NEAR NORBECK, MD",39.1164967,-77.1022014,02070010,dv,00060,00003,1966-10-01,1977-09-29,4017,TRUE,24,9.73,Aspen Hill MD,54029
USGS,01647720,"NORTH BRANCH ROCK CREEK NEAR NORBECK, MD",39.1164967,-77.1022014,02070010,qw,00060,NA,1967-11-02,1975-09-27,187,TRUE,24,9.73,Aspen Hill MD,54029
USGS,01647725,"MANOR RUN NEAR NORBECK, MD",39.11010796,-77.0997013,02070010,dv,00060,00003,1966-10-01,1974-09-29,2921,TRUE,24,1.01,Aspen Hill MD,54029
USGS,01647725,"MANOR RUN NEAR NORBECK, MD",39.11010796,-77.0997013,02070010,qw,00060,NA,1967-05-07,1974-08-19,83,TRUE,24,1.01,Aspen Hill MD,54029
USGS,01647740,"NORTH BRANCH ROCK CREEK NEAR ROCKVILLE, MD",39.10260807,-77.1197016,02070010,dv,00060,00003,1967-08-01,1977-09-29,3713,TRUE,24,12.5,Aspen Hill MD,54029
USGS,01650050,"NW BRANCH ANACOSTIA RIVER AT NORWOOD, MD",39.1267744,-77.020533,02070010,dv,00060,00003,1966-10-01,1974-09-29,2921,TRUE,24,2.45,Aspen Hill MD,54029
USGS,01650050,"NW BRANCH ANACOSTIA RIVER AT NORWOOD, MD",39.1267744,-77.020533,02070010,qw,00060,NA,1967-11-02,1974-08-19,96,TRUE,24,2.45,Aspen Hill MD,54029
USGS,01650190,"BATCHELLORS RUN AT OAKDALE, MD",39.12260777,-77.0599783,02070010,qw,00060,NA,1967-08-04,1974-08-20,45,TRUE,24,0.47,Aspen Hill MD,54029
USGS,01650450,"BEL PRE CREEK AT LAYHILL, MD",39.09094167,-77.05275568,02070010,qw,00060,NA,1966-01-06,1974-08-20,198,TRUE,24,1.69,Aspen Hill MD,54029
USGS,01650450,"BEL PRE CREEK AT LAYHILL, MD",39.09094167,-77.05275568,02070010,dv,00060,00003,1966-10-01,1974-09-29,2921,TRUE,24,1.69,Aspen Hill MD,54029
USGS,01650470,"LUTES RUN AT LUTES, MD",39.07344198,-77.0519222,02070010,qw,00060,NA,1963-02-20,1974-09-07,121,TRUE,24,0.47,Aspen Hill MD,54029
USGS,01650500,"NORTHWEST BRANCH ANACOSTIA RIVER NR COLESVILLE, MD",39.06566667,-77.0293333,02070010,dv,00060,00003,1923-10-01,2020-01-30,30015,TRUE,24,21,Aspen Hill MD,54029
USGS,02217500,"MIDDLE OCONEE RIVER NEAR ATHENS, GA",33.94666667,-83.4227778,03070101,dv,00060,00003,1901-10-01,2020-01-30,31775,TRUE,13,398,Athens-Clarke GA,103618
USGS,02217900,"NORTH OCONEE RIVER AT ATHENS, GA",33.9487262,-83.3676577,03070101,dv,00060,00003,1928-10-01,1949-12-31,3295,TRUE,13,290,Athens-Clarke GA,103618
USGS,12109010,"GREEN RIVER AT AUBURN ACADEMY NEAR AUBURN, WA",47.2881563,-122.1603955,17110013,qw,00060,NA,1970-12-01,1971-09-27,18,TRUE,53,NA,Auburn WA,46108
USGS,12112500,"BIG SOOS CREEK NEAR AUBURN, WA",47.3164896,-122.1456733,17110013,dv,00060,00003,1944-10-01,1956-03-31,4019,TRUE,53,62.9,Auburn WA,46108
USGS,12112600,"BIG SOOS CREEK ABOVE HATCHERY NEAR AUBURN, WA",47.31232289,-122.165396,17110013,dv,00060,00003,1960-09-01,2020-01-30,21701,TRUE,53,66.7,Auburn WA,46108
USGS,12112600,"BIG SOOS CREEK ABOVE HATCHERY NEAR AUBURN, WA",47.31232289,-122.165396,17110013,qw,00060,NA,1962-10-04,1998-04-13,151,TRUE,53,66.7,Auburn WA,46108
USGS,12113000,"GREEN RIVER NEAR AUBURN, WA",47.3123228,-122.2040082,17110013,dv,00060,00003,1936-08-01,2020-01-30,30498,TRUE,53,399,Auburn WA,46108
USGS,12113000,"GREEN RIVER NEAR AUBURN, WA",47.3123228,-122.2040082,17110013,qw,00060,NA,1955-02-09,1970-09-08,130,TRUE,53,399,Auburn WA,46108
USGS,08155500,"Barton Spgs at Austin, TX",30.26354169,-97.7713947,12090205,qw,00060,NA,1969-11-05,2019-01-31,79,TRUE,48,NA,Austin TX,683404
USGS,08155500,"Barton Spgs at Austin, TX",30.26354169,-97.7713947,12090205,dv,00060,00003,1978-03-01,2020-01-30,15311,TRUE,48,NA,Austin TX,683404
USGS,08155500,"Barton Spgs at Austin, TX",30.26354169,-97.7713947,12090205,dv,00060,31200,1978-03-01,2000-08-09,8198,TRUE,48,NA,Austin TX,683404
USGS,08156700,"Shoal Ck at NW Pk, Austin, TX",30.34742756,-97.7450066,12090205,dv,00060,00003,1975-03-28,1984-09-29,3474,TRUE,48,6.52,Austin TX,683404
USGS,08157000,"Waller Ck at 38th St, Austin, TX",30.29715196,-97.7269497,12090205,dv,00060,00003,1955-04-01,1980-10-23,9338,TRUE,48,2.31,Austin TX,683404
USGS,08157500,"Waller Ck at 23rd St, Austin, TX",30.28576347,-97.7338942,12090205,dv,00060,00003,1955-01-01,1980-10-23,9428,TRUE,48,4.13,Austin TX,683404
USGS,09513970,"AGUA FRIA RIVER AT AVONDALE, ARIZ.",33.43504225,-112.3337681,15070102,dv,00060,00003,1967-10-01,1982-09-29,5112,TRUE,04,2066,Avondale AZ,79125
USGS,11082800,SAN GABRIEL R A AZUSA PH CA,34.15472899,-117.9081183,18070106,qw,00060,NA,1966-10-12,1972-09-28,66,TRUE,06,NA,Azusa CA,48992
USGS,11083500,SAN GABRIEL R NR AZUSA CA,34.16972858,-117.8886732,18070106,dv,00060,00003,1893-10-01,1966-09-29,26295,TRUE,06,214,Azusa CA,48992
USGS,11084000,ROGERS C NR AZUSA CA,34.16528418,-117.9064516,18070106,dv,00060,00003,1917-10-01,1962-09-29,16435,TRUE,06,6.64,Azusa CA,48992
USGS,11084500,FISH C NR DUARTE CA,34.1658396,-117.92423,18070106,dv,00060,00003,1916-08-01,1979-09-29,22766,TRUE,06,6.36,Azusa CA,48992
USGS,11084950,SANTA FE DIV CHANNEL CA,34.1127857,-117.9714537,18070105,dv,00060,00003,1973-12-19,1974-04-01,104,TRUE,06,NA,Baldwin Park CA,81467
USGS,11085000,SAN GABRIEL R BL SANTA FE DAM NR BALDWIN PK CA,34.11223019,-117.9695092,18070106,dv,00060,00003,1942-10-01,2020-01-30,25688,TRUE,06,236,Baldwin Park CA,81467
USGS,07031683,FLETCHER CR AT WHITTEN RD AT MEMPHIS TN,35.1878666,-89.8359189,08010210,dv,00060,00003,1977-11-04,1982-02-28,1578,TRUE,47,21.4,Bartlett TN,43852
USGS,07379000,"Ward Creek at Government St at Baton Rouge, LA",30.44446855,-91.1431618,08070202,dv,00060,00003,1954-05-01,1967-03-31,4718,TRUE,22,4.04,Baton Rouge LA,222217
USGS,07379500,"BYU DUPLANTIER @ CITY PARK LK @ BATON ROUGE, LA",30.42102469,-91.1667734,08070201,dv,00060,00003,1933-04-01,1938-06-30,1917,TRUE,22,0.81,Baton Rouge LA,222217
USGS,04105500,"KALAMAZOO RIVER NEAR BATTLE CREEK, MI",42.32392989,-85.1974929,04050003,dv,00060,00003,1937-07-27,2020-01-30,30138,TRUE,26,824,Battle Creek MI,54179
USGS,01581700,"WINTERS RUN NEAR BENSON, MD",39.51994444,-76.3729722,02060003,dv,00060,00003,1967-08-01,2020-01-30,19176,TRUE,24,34.8,Bel Air South MD,50874
USGS,11098500,LOS ANGELES R NR DOWNEY CA,33.94945899,-118.1739592,18070105,dv,00060,00003,1928-03-01,1978-09-29,18475,TRUE,06,599,Bell Gardens CA,46504
USGS,11102500,RIO HONDO NR DOWNEY CA,33.94668115,-118.1628477,18070105,dv,00060,00003,1928-03-01,1979-09-29,18840,TRUE,06,143,Bell Gardens CA,46504
USGS,06610670,"MISSOURI RIVER AT BELLEVUE, NEBR.",41.14305439,-95.8836223,10230006,qw,00060,NA,1970-10-09,1973-09-13,12,TRUE,31,NA,Bellevue NE,48894
USGS,12119700,"COAL CREEK NEAR BELLEVUE, WA",47.5664885,-122.1804,17110012,dv,00060,00003,1964-01-01,1968-09-29,1734,TRUE,53,6.8,Bellevue WA,111896
USGS,12119730,"148TH AVE STORM SWR BL LK HILLS BLVD BELLEVUE, WA",47.60009968,-122.1428999,17110012,dv,00060,00003,1979-12-26,1982-01-31,740,TRUE,53,NA,Bellevue WA,111896
USGS,12119731,"148TH AVE UPSTREAM MANOMETER AT BELLEVUE, WA",47.60009968,-122.1431777,17110012,dv,00060,00003,1979-12-26,1982-01-18,25,TRUE,53,NA,Bellevue WA,111896
USGS,12120000,"MERCER CREEK NEAR BELLEVUE, WA",47.60287716,-122.180956,17110012,dv,00060,00003,1945-07-01,2019-10-29,23588,TRUE,53,12,Bellevue WA,111896
USGS,12120005,"SURREY DOWNS STORM SEWER OUTFALL AT BELLEVUE, WA",47.60037709,-122.1929006,17110012,dv,00060,00003,1979-10-24,1982-01-31,699,TRUE,53,NA,Bellevue WA,111896
USGS,12203000,"WHATCOM CREEK NEAR BELLINGHAM, WA",48.7531944,-122.4265556,17110004,dv,00060,00003,1910-11-01,1975-11-19,3768,TRUE,53,55.4,Bellingham WA,74770
USGS,12203500,"WHATCOM CREEK BELOW HATCHERY NEAR BELLINGHAM, WA",48.75149835,-122.4296117,17110002,dv,00060,00003,1945-10-01,1969-09-29,4686,TRUE,53,56.1,Bellingham WA,74770
USGS,14066500,"CENTRAL OREG CA AB PILOT BTE CA NR BEND,OREG.",44.0303947,-121.331698,17070301,dv,00060,00003,1975-10-01,1990-09-29,5478,TRUE,41,NA,Bend OR,68945
USGS,14068500,"DESCHUTES COUNTY MUNICIPAL IMP DIST CANAL, BEND,OR",44.06317288,-121.3116985,17070301,dv,00060,00003,1975-10-01,1990-09-30,5479,TRUE,41,NA,Bend OR,68945
USGS,14069000,"NORTH UNIT MAIN CANAL NEAR BEND,OREG.",44.0776175,-121.301143,17070301,dv,00060,00003,1975-10-01,1990-09-29,5478,TRUE,41,NA,Bend OR,68945
USGS,14069500,"NORTH CANAL NEAR BEND,OREG.",44.0776174,-121.3122544,17070301,dv,00060,00003,1975-10-01,1990-09-29,5478,TRUE,41,NA,Bend OR,68945
USGS,14070000,"SWALLEY CANAL NEAR BEND,OREG.",44.0803953,-121.301143,17070301,dv,00060,00003,1975-10-01,1990-09-29,5478,TRUE,41,NA,Bend OR,68945
USGS,14070500,"DESCHUTES RIVER BELOW BEND,OREG.",44.08289525,-121.30781,17070301,dv,00060,00003,1915-10-01,1991-09-29,27755,TRUE,41,1899,Bend OR,68945
USGS,11181330,TEMESCAL C AB LK TEMESCAL A OAKLAND CA,37.8438154,-122.2274681,18050002,dv,00060,00003,1979-10-01,1993-10-03,2317,TRUE,06,1.74,Berkeley CA,99653
USGS,11181335,CALDECOTT C A LK TEMESCAL AT OAKLAND CA,37.8465931,-122.228857,18050002,dv,00060,00003,1979-11-21,1981-09-29,526,TRUE,06,0.83,Berkeley CA,99653
USGS,05532500,"DES PLAINES RIVER AT RIVERSIDE, IL",41.82166667,-87.8219444,07120004,dv,00060,00003,1943-10-01,2020-01-30,27881,TRUE,17,630,Berwyn IL,50904
USGS,01646550,"LITTLE FALLS BRANCH NEAR BETHESDA, MD",38.9576106,-77.1083118,02070008,dv,00060,00003,1944-06-01,1979-01-17,11856,TRUE,24,4.1,Bethesda MD,52217
USGS,01452150,"Lehigh R. at Bethlehem, PA",40.61454275,-75.3843471,02040106,qw,00060,NA,1962-07-16,1971-04-29,37,TRUE,42,NA,Bethlehem PA,74087
USGS,01452500,"Monocacy Creek at Bethlehem, PA",40.6412091,-75.37934709,02040106,dv,00060,00003,1948-10-01,2020-01-30,26054,TRUE,42,44.5,Bethlehem PA,74087
USGS,01452600,"Monocacy Cr at Bethlehem, PA",40.61704276,-75.3807359,02040106,qw,00060,NA,1962-07-16,1971-04-29,36,TRUE,42,NA,Bethlehem PA,74087
USGS,01453000,"Lehigh River at Bethlehem, PA",40.6153761,-75.3787914,02040106,dv,00060,00003,1902-10-01,2020-01-30,41029,TRUE,42,1279,Bethlehem PA,74087
USGS,01453000,"Lehigh River at Bethlehem, PA",40.6153761,-75.3787914,02040106,qw,00060,NA,1958-10-15,1972-06-01,118,TRUE,42,1279,Bethlehem PA,74087
USGS,01100600,"SHAWSHEEN RIVER NEAR WILMINGTON, MA",42.5681488,-71.2147792,01070002,dv,00060,00003,1963-11-21,2020-01-30,20525,TRUE,25,36.5,Billerica MA,40063
USGS,06342500,"MISSOURI RIVER AT BISMARCK, ND",46.81416667,-100.8213889,10130101,dv,00060,00003,1927-10-01,2020-01-30,33573,TRUE,38,186400,Bismarck ND,56927
USGS,06342500,"MISSOURI RIVER AT BISMARCK, ND",46.81416667,-100.8213889,10130101,qw,00060,NA,1969-07-28,2014-12-10,141,TRUE,38,186400,Bismarck ND,56927
USGS,01392210,Third River at Passaic NJ,40.8297222,-74.1419444,02030103,dv,00060,00003,1977-05-18,1997-09-30,7441,TRUE,34,11.8,Bloomfield NJ,49358
USGS,01392500,Second River at Belleville NJ,40.78805556,-74.1716667,02030103,dv,00060,00003,1937-05-26,2020-01-31,13188,TRUE,34,11.6,Bloomfield NJ,49358
USGS,04166000,"RIVER ROUGE AT BIRMINGHAM, MI",42.5458678,-83.2235418,04090004,dv,00060,00003,1950-06-01,2020-01-30,25446,TRUE,26,33.3,Bloomfield Township MI,43032
USGS,05580950,"SUGAR CREEK NEAR BLOOMINGTON, IL",40.47194444,-89.0280556,07130009,dv,00060,00003,1974-10-01,2020-01-30,16558,TRUE,17,34.4,Bloomington IL,71804
USGS,05330900,"NINE MILE CREEK AT BLOOMINGTON, MN",44.8127423,-93.3021685,07020012,dv,00060,00003,1963-01-01,1973-07-12,3846,TRUE,27,39,Bloomington MN,80627
USGS,02281500,"HILLSBORO CANAL NR. DEERFIELD BEACH,FLA",26.3278564,-80.1308777,03090202,dv,00060,00003,1939-11-01,1991-06-13,18733,TRUE,12,NA,Boca Raton FL,81868
USGS,02281500,"HILLSBORO CANAL NR. DEERFIELD BEACH,FLA",26.3278564,-80.1308777,03090202,qw,00060,NA,1962-04-07,1978-02-24,72,TRUE,12,NA,Boca Raton FL,81868
USGS,13205000,COTTONWOOD GULCH AT BOISE ID,43.6197222,-116.1844444,17050114,dv,00060,00003,1939-01-25,1941-12-30,1071,TRUE,16,16.6,Boise ID,193628
USGS,13205500,BOISE RIVER AT BOISE ID,43.60905575,-116.2084506,17050114,dv,00060,00003,1940-02-27,1982-10-31,15588,TRUE,16,2741,Boise ID,193628
USGS,13205525,AMERICAN BLVD STORM SEWER AT BOISE ID,43.61655556,-116.2206735,17050114,qw,00060,NA,1973-02-24,1974-03-14,18,TRUE,16,NA,Boise ID,193628
USGS,13205633,CRANE CREEK AT 1206 RANCH RD AT BOISE ID,43.6465557,-116.201229,17050114,dv,00060,00003,1979-10-01,1986-09-29,1964,TRUE,16,7.46,Boise ID,193628
USGS,13212000,DIV FROM BOISE RIVER BTW AT BOISE AND NOTUS GAGES,43.6165556,-116.2176179,17050114,dv,00060,00003,1966-04-01,1973-09-29,2070,TRUE,16,NA,Boise ID,193628
USGS,02291500,"IMPERIAL RIVER NEAR BONITA SPRINGS, FL",26.33583333,-81.74938889,03090204,dv,00060,00003,1940-06-01,2020-01-30,17276,TRUE,12,NA,Bonita Springs FL,43842
USGS,10143500,"CENTERVILLE CREEK ABV DIV NR CENTERVILLE, UT",40.91633389,-111.8629931,16020102,dv,00060,00003,1949-10-01,2012-09-30,16225,TRUE,49,3.15,Bountiful UT,41622
USGS,10144000,"STONE CREEK ABOVE DIVERSION NEAR BOUNTIFUL, UT",40.8943897,-111.8452145,16020102,dv,00060,00003,1950-05-01,1966-09-29,5996,TRUE,49,4.48,Bountiful UT,41622
USGS,10145000,"MILL C AT MUELLER PARK, NR BOUNTIFUL, UTAH",40.8638344,-111.8368805,16020102,dv,00060,00003,1950-05-01,1968-09-29,6727,TRUE,49,8.79,Bountiful UT,41622
USGS,01594440,"PATUXENT RIVER NEAR BOWIE, MD",38.95591667,-76.6936944,02060006,dv,00060,00003,1977-06-27,2020-01-30,15558,TRUE,24,348,Bowie MD,56949
USGS,03314500,"BARREN RIVER AT BOWLING GREEN, KY",37.0028201,-86.432768,05110002,dv,00060,00003,1938-06-01,2020-01-30,27120,TRUE,21,1849,Bowling Green KY,51999
USGS,03314500,"BARREN RIVER AT BOWLING GREEN, KY",37.0028201,-86.432768,05110002,qw,00060,NA,1959-10-16,1981-12-14,75,TRUE,21,1849,Bowling Green KY,51999
USGS,11075720,CARBON C BL CARBON CYN DAM CA,33.91334748,-117.8425584,18070106,dv,00060,00003,1961-10-01,2020-01-30,21306,TRUE,06,19.5,Brea CA,40349
USGS,11075730,CARBON C A OLINDA CA,33.8889035,-117.8453358,18070106,dv,00060,00003,1930-10-01,1938-03-01,2467,TRUE,06,19.7,Brea CA,40349
USGS,11075740,CARBON C NR YORBA LINDA CA,33.88945908,-117.8453358,18070106,dv,00060,00003,1949-10-01,1961-09-29,4382,TRUE,06,20.1,Brea CA,40349
USGS,11089500,FULLERTON C BL FULLERTON DAM NR BREA CA,33.89584765,-117.8861706,18070106,dv,00060,00003,1941-10-01,2020-01-30,28611,TRUE,06,4.94,Brea CA,40349
USGS,12072500,"BLACKJACK CREEK AT PORT ORCHARD, WA",47.53870658,-122.6318044,17110019,dv,00060,00003,1947-07-01,1950-09-29,1187,TRUE,53,14.49,Bremerton WA,45306
USGS,01408120,North Branch Metedeconk River near Lakewood NJ,40.09166667,-74.1525,02040301,dv,00060,00003,1972-10-01,2020-01-30,17288,TRUE,34,34.9,Brick NJ,82400
USGS,01208873,"ROOSTER RIVER AT FAIRFIELD, CT",41.1798189,-73.21900219,01100006,dv,00060,00003,1977-10-01,2020-01-30,14616,TRUE,09,10.6,Bridgeport CT,138901
USGS,01106500,"MATFIELD RIVER AT ELMWOOD, MA",42.01537869,-70.96115378,01090004,dv,00060,00003,1958-07-10,2009-10-14,1848,TRUE,25,40.5,Bridgewater MA,50237
USGS,01189000,"PEQUABUCK R AT FORESTVILLE, CT.",41.673154,-72.90065738,01080207,dv,00060,00003,1941-10-01,2020-01-30,26207,TRUE,09,45.8,Bristol CT,61166
USGS,01107000,"DORCHESTER BROOK NEAR BROCKTON, MA",42.06148889,-71.06587997,01090004,dv,00060,00003,1962-10-24,1974-09-29,4359,TRUE,25,4.67,Brockton MA,94945
USGS,01107000,"DORCHESTER BROOK NEAR BROCKTON, MA",42.06148889,-71.06587997,01090004,qw,00060,NA,1967-03-10,1968-03-05,13,TRUE,25,4.67,Brockton MA,94945
USGS,05288500,"MISSISSIPPI RIVER AT HWY 610 IN BROOKLYN PARK, MN",45.1266318,-93.2968947,07010206,dv,00060,00003,1931-06-01,2020-01-30,32386,TRUE,27,19100,Brooklyn Park MN,67660
USGS,05288500,"MISSISSIPPI RIVER AT HWY 610 IN BROOKLYN PARK, MN",45.1266318,-93.2968947,07010206,qw,00060,NA,1960-08-03,1998-08-07,148,TRUE,27,19100,Brooklyn Park MN,67660
USGS,08111025,"Burton Ck at Villa Maria Rd, Bryan, TX",30.64658746,-96.3496849,12070103,dv,00060,00003,1968-04-05,1970-10-28,937,TRUE,48,1.33,Bryan TX,70386
USGS,05528500,"BUFFALO CREEK NEAR WHEELING, IL",42.15194444,-87.9577778,07120004,dv,00060,00003,1952-08-12,2020-01-30,24642,TRUE,17,19.6,Buffalo Grove IL,43355
USGS,04216000,NIAGARA RIVER AT BUFFALO NY,42.87777778,-78.91638889,04120200,dv,00060,00003,1926-01-01,2019-11-30,34296,TRUE,36,263700,Buffalo NY,276762
USGS,01654000,"ACCOTINK CREEK NEAR ANNANDALE, VA",38.81289066,-77.2283158,02070010,dv,00060,00003,1947-10-01,2020-01-30,26419,TRUE,51,23.9,Burke VA,58270
USGS,01654500,"LONG BRANCH NEAR ANNANDALE, VA",38.8109462,-77.2349827,02070010,dv,00060,00003,1947-10-01,2020-01-30,5836,TRUE,51,3.72,Burke VA,58270
USGS,11106000,CALLEGUAS C A CAMARILLO,34.21611598,-119.0153793,18070103,dv,00060,00003,1928-10-01,1958-09-29,2554,TRUE,06,168,Camarillo CA,63560
USGS,11106500,CONEJO C NR CAMARILLO CA,34.20944945,-118.994545,18070103,dv,00060,00003,1927-10-01,1931-09-29,1460,TRUE,06,69.8,Camarillo CA,63560
USGS,11107500,BEARDSLEY WASH NR SOMIS CA,34.25472624,-119.0776041,18070103,dv,00060,00003,1954-07-01,1958-09-29,1552,TRUE,06,13.5,Camarillo CA,63560
USGS,01467100,"Delaware River at Lehigh Avenue, Philadelphia, PA",39.9692793,-75.1110085,02040202,qw,00060,NA,1956-10-10,1970-09-03,71,TRUE,42,7935,Camden NJ,80393
USGS,01467200,Delaware R at Ben Franklin Bridge at Philadelphia,39.95400165,-75.1373987,02040202,qw,00060,NA,1956-10-10,2001-07-18,88,TRUE,42,7993,Camden NJ,80393
USGS,01467300,"Delaware River at Wharton Street, Philadelphia, PA",39.93177958,-75.1360097,02040202,qw,00060,NA,1956-10-08,1970-09-03,72,TRUE,42,7998,Camden NJ,80393
USGS,03118000,Middle Branch Nimishillen Creek at Canton OH,40.84144709,-81.3537229,05040001,dv,00060,00003,1941-10-01,2020-01-30,28609,TRUE,39,43.1,Canton OH,77575
USGS,03118000,Middle Branch Nimishillen Creek at Canton OH,40.84144709,-81.3537229,05040001,qw,00060,NA,1965-08-31,1971-09-13,24,TRUE,39,43.1,Canton OH,77575
USGS,02286200,"SNAKE CREEK CANAL AT NW67 AVE NR HIALEAH, FL",25.96425918,-80.310884,03090202,dv,00060,00003,1962-04-01,2011-10-15,17701,TRUE,12,NA,Carol City FL,63659
USGS,02286200,"SNAKE CREEK CANAL AT NW67 AVE NR HIALEAH, FL",25.96425918,-80.310884,03090202,qw,00060,NA,1962-08-23,1978-04-18,39,TRUE,12,NA,Carol City FL,63659
USGS,05539900,"WEST BRANCH DU PAGE RIVER NEAR WEST CHICAGO, IL",41.91086169,-88.1789607,07120004,dv,00060,00003,1961-07-27,2020-01-30,21371,TRUE,17,28.5,Carol Stream IL,39749
USGS,08055500,"Elm Fk Trinity Rv nr Carrollton, TX",32.965957,-96.94445,12030103,dv,00060,00003,1907-01-01,2020-01-30,41303,TRUE,48,2459,Carrollton TX,123154
USGS,10310500,"CLEAR CK NR CARSON CITY, NV",39.11324216,-119.7982365,16050201,dv,00060,00003,1948-03-01,2020-01-30,16661,TRUE,32,15.5,Carson City NV,58350
USGS,10311400,"CARSON RV AT DEER RUN RD NR CARSON CITY, NV",39.18137778,-119.6948694,16050201,dv,00060,00003,1979-04-20,2020-01-30,13131,TRUE,32,958,Carson City NV,58350
USGS,10311500,"CARSON RV NR EMPIRE, NV",39.1747222,-119.6875,16050202,dv,00060,00003,1900-11-01,1923-01-31,6689,TRUE,32,988,Carson City NV,58350
USGS,09485850,"RILLITO CREEK NEAR TUCSON, ARIZ",32.2886862,-110.9612047,15050302,dv,00060,00003,1913-10-01,1975-09-29,22461,TRUE,04,892,Casas Adobes AZ,84988
USGS,06644085,NORTH PLATTE RIVER AT MILLS WYO,42.84190947,-106.3597499,10180007,qw,00060,NA,1970-07-28,1975-05-09,106,TRUE,56,NA,Casper WY,51808
USGS,06644500,CASPER C AT CASPER WYO,42.8477428,-106.3650279,10180007,dv,00060,00003,1946-06-01,1956-09-29,3774,TRUE,56,668,Casper WY,51808
USGS,06644500,CASPER C AT CASPER WYO,42.8477428,-106.3650279,10180007,qw,00060,NA,1965-07-26,1973-09-24,130,TRUE,56,668,Casper WY,51808
USGS,06644550,"NORTH PLATTE RIVER AT CASPER, WY",42.8571874,-106.319748,10180007,qw,00060,NA,1971-10-05,1984-07-11,97,TRUE,56,NA,Casper WY,51808
USGS,11180960,CULL C AB CULL C RES NR CASTRO VALLEY CA,37.71770737,-122.0544067,18050004,dv,00060,00003,1978-10-01,2020-01-30,15097,TRUE,06,5.79,Castro Valley CA,63908
USGS,11180965,CULL C BL CULL C DAM NR CASTRO VALLEY CA,37.7021524,-122.05524,18050004,dv,00060,00003,1978-10-01,1979-04-30,212,TRUE,06,6.37,Castro Valley CA,63908
USGS,11181000,SAN LORENZO C A HAYWARD CA,37.68548644,-122.064407,18050004,dv,00060,00003,1940-04-01,2020-01-30,21698,TRUE,06,37.5,Castro Valley CA,63908
USGS,11181004,CASTRO VALLEY C A CASTRO VALLEY CA,37.7115965,-122.0635737,18050004,dv,00060,00003,1978-10-01,1980-09-29,730,TRUE,06,0.98,Castro Valley CA,63908
USGS,11181006,CASTRO VALLEY C A KNOX ST AT CASTRO VAL CA,37.68215326,-122.079963,18050004,dv,00060,00003,1978-10-01,1993-10-06,2036,TRUE,06,2.2,Castro Valley CA,63908
USGS,11181008,CASTRO VALLEY C A HAYWARD CA,37.6799311,-122.0805186,18050004,dv,00060,00003,1971-10-01,2020-01-30,17195,TRUE,06,5.51,Castro Valley CA,63908
USGS,09485850,"RILLITO CREEK NEAR TUCSON, ARIZ",32.2886862,-110.9612047,15050302,dv,00060,00003,1913-10-01,1975-09-29,22461,TRUE,04,892,Catalina Foothills AZ,84369
USGS,01589100,"EAST BRANCH HERBERT RUN AT ARBUTUS, MD",39.24,-76.6921944,02060003,dv,00060,00003,1957-08-01,2020-01-30,19541,TRUE,24,2.47,Catonsville MD,43406
USGS,01589100,"EAST BRANCH HERBERT RUN AT ARBUTUS, MD",39.24,-76.6921944,02060003,qw,00060,NA,1969-07-15,1972-06-08,27,TRUE,24,2.47,Catonsville MD,43406
USGS,05464500,"Cedar River at Cedar Rapids, IA",41.97194549,-91.667123900000007,07080205,dv,00060,00003,1902-10-01,2020-01-30,42854,TRUE,19,6510,Cedar Rapids IA,123243
USGS,05464500,"Cedar River at Cedar Rapids, IA",41.97194549,-91.667123900000007,07080205,qw,00060,NA,1944-01-01,1973-08-24,394,TRUE,19,6510,Cedar Rapids IA,123243
USGS,06712500,"CHERRY CREEK NEAR MELVIN, CO",39.6049883,-104.8224759,10190003,dv,00060,00003,1939-10-01,1985-09-29,11438,TRUE,08,360,Centennial CO,95961
USGS,01656960,"CUB RUN NEAR BULL RUN, VA",38.8212248,-77.46554448,02070010,dv,00060,00003,1972-10-01,1987-01-08,5213,TRUE,51,49.7,Centreville VA,69167
USGS,11290000,TUOLUMNE R A MODESTO CA,37.627153,-120.9843777,18040009,dv,00060,00003,1895-01-01,2020-01-30,29890,TRUE,06,1884,Ceres CA,41223
USGS,11090500,COYOTE C NR ARTESIA CA,33.83890426,-118.060342,18070106,dv,00060,00003,1930-02-01,1963-09-29,12294,TRUE,06,120,Cerritos CA,53616
USGS,03337000,"BONEYARD CREEK AT URBANA, IL",40.1111428,-88.2264375,05120109,dv,00060,00003,1948-07-15,2020-01-30,26132,TRUE,17,4.46,Champaign IL,76999
USGS,03337000,"BONEYARD CREEK AT URBANA, IL",40.1111428,-88.2264375,05120109,uv,00060,NA,1979-07-25,2020-01-31,14800,TRUE,17,4.46,Champaign IL,76999
USGS,02097500,"MORGAN CR BL UNIVERSITY LK DAM NR CHAPEL HILL, NC",35.8976438,-79.0908454,03030002,dv,00060,00003,1923-02-01,1932-03-31,3347,TRUE,37,30.1,Chapel Hill NC,47613
USGS,02146450,"BRIAR CREEK AT SHARON ROAD, CHARLOTTE, NC",35.17986614,-80.8292379,03050103,dv,00060,00003,1962-04-01,1973-03-31,4018,TRUE,37,18.5,Charlotte NC,607111
USGS,03568000,"TENNESSEE RIVER AT CHATTANOOGA, TN",35.08677555,-85.2784299,06020001,dv,00060,00003,1874-04-01,2008-09-29,49125,TRUE,47,21400,Chattanooga TN,153617
USGS,04216200,SCAJAQUADA CREEK AT BUFFALO NY,42.91138889,-78.7955556,04120104,dv,00060,00003,1957-03-01,1994-09-30,13728,TRUE,36,15.4,Cheektowaga NY,76785
USGS,01467150,Cooper River at Haddonfield NJ,39.90305556,-75.02138889,02040202,qw,00060,NA,1961-04-25,2013-02-20,20,TRUE,34,17,Cherry Hill PA,70489
USGS,01467150,Cooper River at Haddonfield NJ,39.90305556,-75.02138889,02040202,dv,00060,00003,1963-10-01,2020-01-30,20576,TRUE,34,17,Cherry Hill PA,70489
USGS,06935840,"MISSOURI RIVER NEAR ST. LOUIS, MO.",38.68171916,-90.5453996,10300200,qw,00060,NA,1969-06-20,1974-07-16,62,TRUE,29,NA,Chesterfield MO,47202
USGS,06756000,"CROW CREEK NEAR CHEYENNE, WY",41.11914795,-104.7596896,10190009,dv,00060,00003,1922-10-01,1957-09-29,3045,TRUE,56,297,Cheyenne WY,55833
USGS,06756000,"CROW CREEK NEAR CHEYENNE, WY",41.11914795,-104.7596896,10190009,qw,00060,NA,1972-07-28,1973-09-14,11,TRUE,56,297,Cheyenne WY,55833
USGS,11384000,BIG CHICO C NR CHICO CA,39.7762726,-121.753866,18020157,dv,00060,00003,1930-10-01,1986-09-29,20453,TRUE,06,72.4,Chico CA,71997
USGS,11384000,BIG CHICO C NR CHICO CA,39.7762726,-121.753866,18020157,qw,00060,NA,1960-10-10,1971-09-23,115,TRUE,06,72.4,Chico CA,71997
USGS,11384200,BIG CHICO C A CHICO CA,39.72710549,-121.8633113,18020157,qw,00060,NA,1960-10-10,1966-06-09,64,TRUE,06,NA,Chico CA,71997
USGS,01172000,"CONNECTICUT RIVER AT HOLYOKE, MA",42.21398075,-72.6023116,01080201,dv,00060,00003,1890-10-01,1899-12-31,3379,TRUE,25,8309,Chicopee MA,55222
USGS,01177000,"CHICOPEE RIVER AT INDIAN ORCHARD, MA",42.16064906,-72.5139756,01080204,dv,00060,00003,1928-08-05,2020-01-30,33416,TRUE,25,689,Chicopee MA,55222
USGS,11073360,CHINO C A SCHAEFER AVENUE NR CHINO CA,34.00390144,-117.7270006,18070203,dv,00060,00003,1969-10-01,2020-01-30,18384,TRUE,06,48.9,Chino CA,77147
USGS,11073360,CHINO C A SCHAEFER AVENUE NR CHINO CA,34.00390144,-117.7270006,18070203,dv,00060,00003,1969-10-01,2020-01-30,18384,TRUE,06,48.9,Chino Hills CA,80817
USGS,03259500,Mill Creek at Mitchell Ave at Cincinnati OH,39.16533666,-84.5110544,05090203,dv,00060,00003,1940-11-02,1948-06-30,2291,TRUE,39,135,Cincinnati OH,301561
USGS,02307731,ALLEN CREEK NEAR LARGO FL,27.9419656,-82.7498233,03100206,dv,00060,00003,1947-02-12,2006-07-19,4236,TRUE,12,1.7,Clearwater FL,107866
USGS,04208502,Big Creek at Cleveland OH,41.45032916,-81.7215204,04110002,dv,00060,00003,1972-10-01,2020-01-30,7627,TRUE,39,35.3,Cleveland OH,443949
USGS,04208503,Cuyahoga R at Lower Harvard Brdg in Cleveland OH,41.4475518,-81.684574,04110002,qw,00060,NA,1977-09-28,1978-09-20,24,TRUE,39,786,Cleveland OH,443949
USGS,01392000,Weasel Brook at Clifton NJ,40.87,-74.1461111,02030103,dv,00060,00003,1937-03-01,1962-09-30,9345,TRUE,34,4.45,Clifton NJ,80446
USGS,01392210,Third River at Passaic NJ,40.8297222,-74.1419444,02030103,dv,00060,00003,1977-05-18,1997-09-30,7441,TRUE,34,11.8,Clifton NJ,80446
USGS,04164000,"CLINTON RIVER NEAR FRASER, MI",42.57781225,-82.951589,04090003,dv,00060,00003,1947-06-01,2020-01-30,26542,TRUE,26,444,Clinton MI,100517
USGS,04164000,"CLINTON RIVER NEAR FRASER, MI",42.57781225,-82.951589,04090003,qw,00060,NA,1966-03-30,2006-04-26,41,TRUE,26,444,Clinton MI,100517
USGS,04164500,"NORTH BRANCH CLINTON RIVER NEAR MT. CLEMENS, MI",42.62920008,-82.8888104,04090003,dv,00060,00003,1947-06-01,2020-01-30,26542,TRUE,26,199,Clinton MI,100517
USGS,04165200,"GLOEDE DITCH NEAR WALDENBURG, MI",42.62753346,-82.9527019,04090003,dv,00060,00003,1959-10-01,1964-09-29,1826,TRUE,26,16,Clinton MI,100517
USGS,04165500,"CLINTON RIVER AT MORAVIAN DRIVE AT MT. CLEMENS, MI",42.5958674,-82.90881,04090003,dv,00060,00003,1934-05-01,2020-01-30,31320,TRUE,26,734,Clinton MI,100517
USGS,04165500,"CLINTON RIVER AT MORAVIAN DRIVE AT MT. CLEMENS, MI",42.5958674,-82.90881,04090003,qw,00060,NA,1967-08-28,2018-01-10,32,TRUE,26,734,Clinton MI,100517
USGS,02281415,"HILLSBORO CA AT RNGLINE RD NR DEERFIELD BCH, FL",26.3253566,-80.2025466,03090202,qw,00060,NA,1954-10-01,1957-08-27,19,TRUE,12,NA,Coconut Creek FL,51848
USGS,02281500,"HILLSBORO CANAL NR. DEERFIELD BEACH,FLA",26.3278564,-80.1308777,03090202,dv,00060,00003,1939-11-01,1991-06-13,18733,TRUE,12,NA,Coconut Creek FL,51848
USGS,02281500,"HILLSBORO CANAL NR. DEERFIELD BEACH,FLA",26.3278564,-80.1308777,03090202,qw,00060,NA,1962-04-07,1978-02-24,72,TRUE,12,NA,Coconut Creek FL,51848
USGS,08111025,"Burton Ck at Villa Maria Rd, Bryan, TX",30.64658746,-96.3496849,12070103,dv,00060,00003,1968-04-05,1970-10-28,937,TRUE,48,1.33,College Station TX,80627
USGS,07104500,"TEMPLETON GAP FLOODWAY AT COLORADO SPRINGS, CO.",38.88804838,-104.8174758,11020003,dv,00060,00003,1951-08-01,1981-09-29,11018,TRUE,08,8.73,Colorado Springs CO,375744
USGS,11056200,SANTA ANA R A WATERMAN AVE AT SAN BERNARDINO CA,34.0705686,-117.2789312,18070203,dv,00060,00003,1954-10-01,1979-09-29,6176,TRUE,06,359,Colton CA,53281
USGS,11059000,WARM C FLOODWAY A SAN BERNARDINO CA,34.09584545,-117.2758757,18070203,dv,00060,00003,1961-01-01,1981-09-29,7577,TRUE,06,47.8,Colton CA,53281
USGS,11059100,SAN BERNARDINO WATER QUALITY CONTROL PLANT CA,34.07390177,-117.2875426,18070203,dv,00060,00003,1972-10-01,1982-09-29,3651,TRUE,06,NA,Colton CA,53281
USGS,11059300,SANTA ANA R A E ST NR SAN BERNARDINO CA,34.0650131,-117.3003208,18070203,dv,00060,00003,1939-03-01,2020-01-30,24818,TRUE,06,541,Colton CA,53281
USGS,11059300,SANTA ANA R A E ST NR SAN BERNARDINO CA,34.0650131,-117.3003208,18070203,qw,00060,NA,1968-12-09,1973-08-09,166,TRUE,06,541,Colton CA,53281
USGS,11060300,LYTLE C (EAST CHANNEL) A SAN BERNARDINO CA,34.09723406,-117.3139326,18070203,dv,00060,00003,1928-10-01,1957-09-29,10560,TRUE,06,NA,Colton CA,53281
USGS,11060400,WARM C NR SAN BERNARDINO CA,34.07834596,-117.3003209,18070203,dv,00060,00003,1964-03-01,2020-01-30,19693,TRUE,06,11,Colton CA,53281
USGS,11060500,MEEKS AND DALEY CN NR COLTON CA,34.07973479,-117.3008765,18070203,dv,00060,00003,1920-10-01,1981-09-29,22209,TRUE,06,NA,Colton CA,53281
USGS,11065000,LYTLE C A COLTON CA,34.07890146,-117.3055989,18070203,dv,00060,00003,1957-10-01,2020-01-30,22496,TRUE,06,186,Colton CA,53281
USGS,11065800,WARM C NR COLTON CA,34.06917958,-117.3086545,18070203,dv,00060,00003,1920-10-01,1961-12-31,15067,TRUE,06,192,Colton CA,53281
USGS,11065801,WARM C NR COLTON + DIV CA,34.06917958,-117.3086545,18070203,dv,00060,00003,1920-09-18,1961-12-31,15080,TRUE,06,259,Colton CA,53281
USGS,11066050,SANTA ANA R A COLTON CA,34.06251316,-117.30921,18070203,dv,00060,00003,1962-01-01,1966-09-29,1733,TRUE,06,721,Colton CA,53281
USGS,11066050,SANTA ANA R A COLTON CA,34.06251316,-117.30921,18070203,qw,00060,NA,1966-10-10,1970-06-25,44,TRUE,06,721,Colton CA,53281
USGS,11066100,LYTLE C W CHANNEL A COLTON CA,34.06667957,-117.3217105,18070203,dv,00060,00003,1928-10-01,1945-09-29,6208,TRUE,06,NA,Colton CA,53281
USGS,01593500,"LITTLE PATUXENT RIVER AT GUILFORD, MD",39.16775,-76.85125,02060006,dv,00060,00003,1932-04-01,2020-01-30,32081,TRUE,24,38,Columbia MD,97772
USGS,06910230,"Hinkson Creek at Columbia, MO",38.92775,-92.3399444,10300102,dv,00060,00003,1966-10-01,2020-01-30,12028,TRUE,29,69.8,Columbia MO,92756
USGS,03363900,"FLATROCK RIVER AT COLUMBUS, IN",39.2350514,-85.9266597,05120205,dv,00060,00003,1967-10-01,2020-01-30,19113,TRUE,18,534,Columbus IN,39453
USGS,03364000,"EAST FORK WHITE RIVER AT COLUMBUS, IN",39.2000516,-85.9255464,05120205,dv,00060,00003,1948-04-01,2020-01-30,26235,TRUE,18,1707,Columbus IN,39453
USGS,11102750,COMPTON C A 120TH ST NR COMPTON CA,33.9239046,-118.2517393,18070105,dv,00060,00003,1974-02-01,1975-01-03,308,TRUE,06,14.5,Compton CA,97338
USGS,11183600,WALNUT C A CONCORD CA,37.9452008,-122.0496848,18050001,dv,00060,00003,1968-10-01,1992-09-30,8766,TRUE,06,85.2,Concord CA,126360
USGS,11184000,GALINDO C A CONCORD CA,37.96658905,-122.026073,18050001,dv,00060,00003,1954-10-01,1958-09-29,1460,TRUE,06,7.74,Concord CA,126360
USGS,11184500,PINE C A CONCORD CA,37.9693668,-122.046907,18050001,dv,00060,00003,1952-10-01,1960-09-29,2921,TRUE,06,28.3,Concord CA,126360
USGS,05288480,"COON CREEK AT CO. 78 AT COON RAPIDS, MN",45.186354,-93.3116182,07010206,dv,00060,00003,1979-04-10,1980-11-04,400,TRUE,27,73.5,Coon Rapids MN,62711
USGS,05288487,"SAND CREEK AT XEON STREET IN COON RAPIDS, MN",45.183854,-93.2968955,07010206,dv,00060,00003,1979-04-13,1980-11-04,424,TRUE,27,15.4,Coon Rapids MN,62711
USGS,05288490,"COON CREEK AT COON RAPIDS BLVD. IN COON RAPIDS, MN",45.15135405,-93.296895,07010206,dv,00060,00003,1979-04-10,1980-11-05,406,TRUE,27,96.4,Coon Rapids MN,62711
USGS,08055000,"Denton Ck nr Grapevine, TX",32.9870677,-97.0127857,12030104,dv,00060,00003,1947-10-01,2020-01-30,22028,TRUE,48,705,Coppell TX,40487
USGS,08055500,"Elm Fk Trinity Rv nr Carrollton, TX",32.965957,-96.94445,12030103,dv,00060,00003,1907-01-01,2020-01-30,41303,TRUE,48,2459,Coppell TX,40487
USGS,02290700,"SNAPPER CREEK CANAL AT S-22 NEAR SOUTH MIAMI, FL",25.67010294,-80.2839402,03090202,dv,00060,00003,1959-02-01,1985-09-29,9726,TRUE,12,NA,Coral Gables FL,42495
USGS,02290700,"SNAPPER CREEK CANAL AT S-22 NEAR SOUTH MIAMI, FL",25.67010294,-80.2839402,03090202,qw,00060,NA,1966-05-03,1978-10-25,131,TRUE,12,NA,Coral Gables FL,42495
USGS,11072200,TEMESCAL C A CORONA CA,33.89612638,-117.5814391,18070203,dv,00060,00003,1968-01-01,1980-09-30,2556,TRUE,06,249,Corona CA,159198
USGS,11078100,SANTA ANA R ADAMS ST NR COSTA MESA CA,33.67196374,-117.9458917,18070203,dv,00060,00003,1973-10-01,1977-09-29,1460,TRUE,06,1701,Costa Mesa CA,109357
USGS,411646095525701,075N44W22DAC            Missouri River at C Bluffs,41.27944235,-95.8827903,10230006,qw,00060,NA,1956-06-18,1968-05-06,30,TRUE,19,NA,Council Bluffs IA,58834
USGS,02286200,"SNAKE CREEK CANAL AT NW67 AVE NR HIALEAH, FL",25.96425918,-80.310884,03090202,dv,00060,00003,1962-04-01,2011-10-15,17701,TRUE,12,NA,Country Club FL,58321
USGS,02286200,"SNAKE CREEK CANAL AT NW67 AVE NR HIALEAH, FL",25.96425918,-80.310884,03090202,qw,00060,NA,1962-08-23,1978-04-18,39,TRUE,12,NA,Country Club FL,58321
USGS,02287200,MIAMI CANAL EAST OF L-30 NR MIAMI FLA,25.9337048,-80.3414404,03090202,qw,00060,NA,1961-10-01,1969-05-05,105,TRUE,12,NA,Country Club FL,58321
USGS,01116300,"FURNACE HILL BROOK AT CRANSTON, RI",41.7564892,-71.4972824,01090004,dv,00060,00003,1965-07-14,1974-09-29,3365,TRUE,44,4.19,Cranston RI,83595
USGS,01116500,"PAWTUXET RIVER AT CRANSTON, RI",41.75093399,-71.4450575,01090004,dv,00060,00003,1939-12-06,2020-01-30,29276,TRUE,44,200,Cranston RI,83595
USGS,11103500,BALLONA C NR CULVER CITY CA,33.9983453,-118.4022996,18070104,dv,00060,00003,1928-03-01,1978-09-29,18475,TRUE,06,89.5,Culver City CA,40361
USGS,11166500,STEVENS C NR CUPERTINO CA,37.305498,-122.0746836,18050003,dv,00060,00003,1930-10-01,1959-09-29,10591,TRUE,06,18.1,Cupertino CA,50952
USGS,11169600,PROSPECT C AT SARATOGA GOLF COURSE NR SARATOGA CA,37.28577626,-122.05496050000001,18050003,dv,00060,00003,1972-10-01,1978-09-29,2190,TRUE,06,0.27,Cupertino CA,50952
USGS,11169616,CALABAZAS C A RAINBOW DRIVE NR CUPERTINO CA,37.300776,-122.0266263,18050003,dv,00060,00003,1973-10-01,1978-09-29,1825,TRUE,06,3.98,Cupertino CA,50952
USGS,04206000,Cuyahoga River at Old Portage OH,41.1356112,-81.5470622,04110002,dv,00060,00003,1921-10-01,2020-01-30,34761,TRUE,39,404,Cuyahoga Falls OH,52223
USGS,04206000,Cuyahoga River at Old Portage OH,41.1356112,-81.5470622,04110002,qw,00060,NA,1965-10-06,1971-09-29,33,TRUE,39,404,Cuyahoga Falls OH,52223
USGS,11090500,COYOTE C NR ARTESIA CA,33.83890426,-118.060342,18070106,dv,00060,00003,1930-02-01,1963-09-29,12294,TRUE,06,120,Cypress CA,47521
USGS,11090700,COYOTE C A LOS ALAMITOS CA,33.81057157,-118.075342,18070106,dv,00060,00003,1963-10-01,1979-09-29,5780,TRUE,06,150,Cypress CA,47521
USGS,01657655,"HOOES RUN NEAR OCCOQUAN, VA",38.6801163,-77.2899837,02070010,dv,00060,00003,1974-11-20,1982-09-29,2871,TRUE,51,3.92,Dale City VA,62241
USGS,08056500,"Turtle Ck at Dallas, TX",32.80735055,-96.8025013,12030105,dv,00060,00003,1951-10-01,2020-01-30,16853,TRUE,48,7.98,Dallas TX,1216543
USGS,08057300,"White Rk Ck at White Rk Lk, Dallas, TX",32.80873904,-96.725832,12030105,dv,00060,00003,1962-10-01,2020-01-30,7788,TRUE,48,100,Dallas TX,1216543
USGS,11162720,COLMA C A SOUTH SAN FRANCISCO CA,37.65382296,-122.4263613,18050004,dv,00060,00003,1963-10-01,1996-11-12,11494,TRUE,06,10.8,Daly City CA,98084
USGS,11162720,COLMA C A SOUTH SAN FRANCISCO CA,37.65382296,-122.4263613,18050004,qw,00060,NA,1965-11-17,1971-10-15,67,TRUE,06,10.8,Daly City CA,98084
USGS,01201420,"STILL R AT SEEGAR ST AT DANBURY, CT",41.38231705,-73.4740118,01100005,dv,00060,00003,1966-10-01,1968-09-29,730,TRUE,09,13.4,Danbury CT,79292
USGS,01201470,"STILL R AT OLD NEWTOWN RD NR DANBURY, CT",41.4067616,-73.425399,01100005,dv,00060,00003,1966-10-01,1968-09-29,730,TRUE,09,38.7,Danbury CT,79292
USGS,11182500,SAN RAMON C A SAN RAMON CA,37.772983,-121.9946825,18050001,dv,00060,00003,1952-10-01,2020-01-30,24593,TRUE,06,5.89,Danville CA,43110
USGS,02075000,"DAN RIVER AT DANVILLE, VA",36.58763855,-79.381689,03010104,dv,00060,00003,1934-08-01,1995-09-30,22341,TRUE,51,2060,Danville VA,45382
USGS,11455000,PUTAH C NR DAVIS CA,38.5232401,-121.7871846,18020162,dv,00060,00003,1948-10-01,1962-12-31,5205,TRUE,06,638,Davis CA,66992
USGS,03270400,Great Miami River at Dayton OH-USGS 03270400,39.76478098,-84.1932737,05080002,dv,00060,00003,1952-10-01,1953-09-29,364,TRUE,39,2510,Dayton OH,157607
USGS,03270500,Great Miami River at Dayton OH,39.7653365,-84.1974405,05080002,dv,00060,00003,1913-04-01,2020-01-30,39020,TRUE,39,2511,Dayton OH,157607
USGS,03271000,Wolf Creek at Dayton OH,39.76672525,-84.2366086,05080002,dv,00060,00003,1938-10-01,2020-01-30,14364,TRUE,39,68.7,Dayton OH,157607
USGS,05439000,"SOUTH BRANCH KISHWAUKEE RIVER AT DEKALB, IL",41.9311111,-88.7597222,07090006,dv,00060,00003,1925-07-17,2020-01-30,17761,TRUE,17,77.7,DeKalb IL,44223
USGS,04167000,"MIDDLE RIVER ROUGE NEAR GARDEN CITY, MI",42.34809259,-83.31159728,04090004,dv,00060,00003,1930-10-01,2020-01-30,25479,TRUE,26,99.9,Dearborn Heights MI,55964
USGS,04168000,"LOWER RIVER ROUGE AT INKSTER, MI",42.30059329,-83.3002078,04090004,dv,00060,00003,1947-06-01,2016-09-29,25324,TRUE,26,83.2,Dearborn Heights MI,55964
USGS,04168500,"LOWER RIVER ROUGE AT S. BRADY RD AT DEARBORN, MI",42.3125376,-83.2424282,04090004,dv,00060,00003,1930-10-01,1933-09-29,1095,TRUE,26,91.9,Dearborn Heights MI,55964
USGS,04168500,"LOWER RIVER ROUGE AT S. BRADY RD AT DEARBORN, MI",42.3125376,-83.2424282,04090004,dv,00060,00003,1930-10-01,1933-09-29,1095,TRUE,26,91.9,Dearborn MI,94681
USGS,05573500,"SANGAMON RIVER AT LAKE DECATUR, IL",39.8272591,-88.9559109,07130006,dv,00060,00003,1948-12-15,1951-09-29,1019,TRUE,17,925,Decatur IL,77026
USGS,02281500,"HILLSBORO CANAL NR. DEERFIELD BEACH,FLA",26.3278564,-80.1308777,03090202,dv,00060,00003,1939-11-01,1991-06-13,18733,TRUE,12,NA,Deerfield Beach FL,66628
USGS,02281500,"HILLSBORO CANAL NR. DEERFIELD BEACH,FLA",26.3278564,-80.1308777,03090202,qw,00060,NA,1962-04-07,1978-02-24,72,TRUE,12,NA,Deerfield Beach FL,66628
USGS,05482000,"Des Moines River at 2nd Avenue at Des Moines, IA",41.61248906,-93.6210513,07100004,dv,00060,00003,1915-03-01,2020-01-30,25536,TRUE,19,6245,Des Moines IA,192050
USGS,05482000,"Des Moines River at 2nd Avenue at Des Moines, IA",41.61248906,-93.6210513,07100004,qw,00060,NA,1944-06-17,1960-05-26,13,TRUE,19,6245,Des Moines IA,192050
USGS,05485500,"Des Moines River blw Raccoon Riv at Des Moines, IA",41.57776716,-93.6054951,07100008,dv,00060,00003,1940-04-01,2020-01-30,29159,TRUE,19,9879,Des Moines IA,192050
USGS,05485500,"Des Moines River blw Raccoon Riv at Des Moines, IA",41.57776716,-93.6054951,07100008,qw,00060,NA,1944-06-17,1973-04-13,91,TRUE,19,9879,Des Moines IA,192050
USGS,05530000,"WELLER CREEK AT DES PLAINES, IL",42.04947275,-87.918123,07120004,dv,00060,00003,1950-10-01,2020-01-30,25324,TRUE,17,13.2,Des Plaines IL,53601
USGS,01483700,"ST JONES RIVER AT DOVER, DE",39.1637222,-75.5190833,02040207,dv,00060,00003,1958-01-01,2020-01-30,22673,TRUE,10,31.9,Dover DE,34288
USGS,01483700,"ST JONES RIVER AT DOVER, DE",39.1637222,-75.5190833,02040207,qw,00060,NA,1959-03-09,1972-08-31,104,TRUE,10,31.9,Dover DE,34288
USGS,11098500,LOS ANGELES R NR DOWNEY CA,33.94945899,-118.1739592,18070105,dv,00060,00003,1928-03-01,1978-09-29,18475,TRUE,06,599,Downey CA,112762
USGS,11102500,RIO HONDO NR DOWNEY CA,33.94668115,-118.1628477,18070105,dv,00060,00003,1928-03-01,1979-09-29,18840,TRUE,06,143,Downey CA,112762
USGS,11174500,ALAMO C A DUBLIN CA,37.7013188,-121.9191247,18050004,dv,00060,00003,1914-10-01,1920-09-29,2191,TRUE,06,38.7,Dublin CA,40791
USGS,11174600,ALAMO CN NR PLEASANTON CA,37.69444444,-121.9194444,18050004,dv,00060,00003,1979-08-30,2020-01-30,3411,TRUE,06,39.5,Dublin CA,40791
USGS,11176200,ARROYO MOCHO NR PLEASANTON CA,37.6904857,-121.8732899,18050004,dv,00060,00003,1962-09-01,2019-05-31,9190,TRUE,06,142,Dublin CA,40791
USGS,11176300,TASSAJARA C NR PLEASANTON CA,37.69909655,-121.8791234,18050004,dv,00060,00003,1914-10-01,1983-09-29,6677,TRUE,06,26.8,Dublin CA,40791
USGS,02097243,"THIRD FORK CREEK AT DURHAM, NC",35.9787553,-78.9130637,03030002,dv,00060,00003,1968-11-01,1973-06-01,1674,TRUE,37,1.68,Durham NC,208426
USGS,01404500,Lawrence Brook at Patricks Corner NJ,40.42388889,-74.4786111,02030105,dv,00060,00003,1922-06-21,1926-12-31,1655,TRUE,34,29,East Brunswick NJ,48799
USGS,01405000,Lawrence Brook at Farrington Dam NJ,40.45,-74.4511111,02030105,dv,00060,00003,1927-05-01,1990-06-05,23047,TRUE,34,34.4,East Brunswick NJ,48799
USGS,01405500,South River at Old Bridge NJ,40.4061111,-74.3686111,02030105,dv,00060,00003,1939-08-01,1988-10-04,17963,TRUE,34,94.6,East Brunswick NJ,48799
USGS,01405500,South River at Old Bridge NJ,40.4061111,-74.3686111,02030105,qw,00060,NA,1962-10-08,1970-08-28,32,TRUE,34,94.6,East Brunswick NJ,48799
USGS,01192500,"HOCKANUM RIVER NEAR EAST HARTFORD, CT",41.7831548,-72.5873114,01080205,dv,00060,00003,1919-10-01,2020-01-30,32305,TRUE,09,73.4,East Hartford CT,50209
USGS,01192500,"HOCKANUM RIVER NEAR EAST HARTFORD, CT",41.7831548,-72.5873114,01080205,qw,00060,NA,1954-04-21,2016-06-13,47,TRUE,09,73.4,East Hartford CT,50209
USGS,02301800,SIXMILE CREEK AT TAMPA FL,27.9666883,-82.3684263,03100206,dv,00060,00003,1956-10-01,1974-09-29,6006,TRUE,12,28,East Lake FL,47720
USGS,02301800,SIXMILE CREEK AT TAMPA FL,27.9666883,-82.3684263,03100206,qw,00060,NA,1956-11-02,1972-08-28,23,TRUE,12,28,East Lake FL,47720
USGS,02301802,"TAMPA BYPASS CANAL AT S-160,AT TAMPA FL",27.9561331,-82.3706485,03100206,dv,00060,00003,1974-10-01,1990-06-30,5752,TRUE,12,29,East Lake FL,47720
USGS,02301802,"TAMPA BYPASS CANAL AT S-160,AT TAMPA FL",27.9561331,-82.3706485,03100206,qw,00060,NA,1976-03-25,1979-05-23,12,TRUE,12,29,East Lake FL,47720
USGS,02304500,HILLSBOROUGH RIVER NEAR TAMPA FL,28.02390784,-82.4275939,03100205,dv,00060,00003,1938-10-01,2020-01-30,29641,TRUE,12,624,East Lake FL,47720
USGS,02304500,HILLSBOROUGH RIVER NEAR TAMPA FL,28.02390784,-82.4275939,03100205,qw,00060,NA,1956-11-06,1972-08-28,19,TRUE,12,624,East Lake FL,47720
USGS,04112500,"RED CEDAR RIVER AT EAST LANSING, MI",42.7272571,-84.4780317,04050004,dv,00060,00003,1902-08-31,2020-01-30,32966,TRUE,26,355,East Lansing MI,48618
USGS,01392500,Second River at Belleville NJ,40.78805556,-74.1716667,02030103,dv,00060,00003,1937-05-26,2020-01-31,13188,TRUE,34,11.6,East Orange NJ,68064
USGS,01393000,Elizabeth R at Irvington NJ,40.7361111,-74.2291667,02030104,dv,00060,00003,1930-10-01,1938-09-29,2921,TRUE,34,2.91,East Orange NJ,68064
USGS,01393800,Ef EB Rahway R at West Orange NJ,40.76944444,-74.2433333,02030104,dv,00060,00003,1972-05-19,1974-12-04,882,TRUE,34,0.83,East Orange NJ,68064
USGS,01114000,"MOSHASSUCK RIVER AT PROVIDENCE, RI",41.833989,-71.41061208,01090004,dv,00060,00003,1963-06-01,2020-01-30,20698,TRUE,44,23.1,East Providence RI,50750
USGS,05367000,"CHIPPEWA RIVER AT EAU CLAIRE, WI",44.7941269,-91.5362732,07050005,dv,00060,00003,1902-10-01,1954-09-29,6211,TRUE,55,6630,Eau Claire WI,63049
USGS,05330800,"PURGATORY CREEK AT EDEN PRAIRIE, MN",44.83051926,-93.4243952,07020012,dv,00060,00003,1975-10-01,1980-12-31,1919,TRUE,27,26.8,Eden Prairie MN,65076
USGS,07242350,"Deep Fork near Arcadia, OK",35.64727889,-97.3600365,11100303,dv,00060,00003,1969-10-01,1998-05-31,9274,TRUE,40,105,Edmond OK,75061
USGS,07242350,"Deep Fork near Arcadia, OK",35.64727889,-97.3600365,11100303,qw,00060,NA,1969-10-21,1979-09-26,441,TRUE,40,105,Edmond OK,75061
USGS,02306000,SULPHUR SPRINGS AT SULPHUR SPRINGS FL,28.02113004,-82.451761,03100205,dv,00060,00003,1959-07-01,2020-01-30,22129,TRUE,12,NA,Egypt Lake-Leto FL,49538
USGS,02306000,SULPHUR SPRINGS AT SULPHUR SPRINGS FL,28.02113004,-82.451761,03100205,dv,00060,00003,1974-04-25,2011-09-29,6164,TRUE,12,NA,Egypt Lake-Leto FL,49538
USGS,02306500,SWEETWATER CREEK NEAR SULPHUR SPRINGS FL,28.04307328,-82.5117623,03100206,dv,00060,00003,1951-10-01,2020-01-30,24959,TRUE,12,7.43,Egypt Lake-Leto FL,49538
USGS,09513700,AGUA FRIA R TRIB A YOUNGTOWN ARIZ,33.5797617,-112.3012692,15070102,dv,00060,00003,1961-03-01,1968-09-29,2770,TRUE,04,0.13,El Mirage AZ,42234
USGS,11086990,SAN JOSE C NR EL MONTE CA,34.0319553,-118.0120105,18070106,dv,00060,00003,1964-10-01,1978-09-29,5112,TRUE,06,87.8,El Monte CA,127195
USGS,11087020,SAN GABRIEL R AB WHITTIER NARROWS DAM CA,34.03417767,-118.0381225,18070106,dv,00060,00003,1955-10-01,2020-01-30,21306,TRUE,06,442,El Monte CA,127195
USGS,11100760,ARCADIA WASH A GRAND AVE A ARCADIA CA,34.0961197,-118.0345114,18070105,dv,00060,00003,1974-02-07,1975-02-05,364,TRUE,06,8.5,El Monte CA,127195
USGS,11101080,EATON WASH A LOFTAS DRIVE EL MONTE CA,34.07334297,-118.055901,18070105,dv,00060,00003,1973-10-03,1974-12-19,317,TRUE,06,19.9,El Monte CA,127195
USGS,11101180,RUBIO WASH A GLENDON WAY NR EL MONTE CA,34.0741764,-118.0772906,18070105,dv,00060,00003,1973-06-06,1975-02-05,416,TRUE,06,11.1,El Monte CA,127195
USGS,11101250,RIO HONDO AB WHITTIER NARROWS DAM CA,34.05834368,-118.0717348,18070105,dv,00060,00003,1956-03-01,2020-01-30,23346,TRUE,06,91.2,El Monte CA,127195
USGS,11101500,RIO HONDO NR MONTEBELLO CA,34.03334468,-118.0736792,18070105,dv,00060,00003,1928-10-01,1978-09-29,18261,TRUE,06,116,El Monte CA,127195
USGS,08365600,"McKelligon Canyon at El Paso, TX",31.8223291,-106.4697093,13040100,dv,00060,00003,1957-10-01,1977-09-29,7304,TRUE,48,2.3,El Paso TX,603545
USGS,01586500,"NORTH BRANCH PATAPSCO RIVER NEAR REISTERSTOWN, MD",39.44305556,-76.8886111,02060003,dv,00060,00003,1927-07-01,1953-12-31,9681,TRUE,24,91,Eldersburg MD,41194
USGS,01588000,"PINEY RUN NEAR SYKESVILLE, MD",39.38204819,-76.96636779,02060003,dv,00060,00003,1931-09-22,1958-09-29,9870,TRUE,24,11.4,Eldersburg MD,41194
USGS,05550500,"POPLAR CREEK AT ELGIN, IL",42.0261111,-88.2555556,07120006,dv,00060,00003,1951-08-14,2020-01-30,25006,TRUE,17,35.2,Elgin IL,99411
USGS,05550500,"POPLAR CREEK AT ELGIN, IL",42.0261111,-88.2555556,07120006,uv,00060,NA,1955-05-05,2020-01-31,23647,TRUE,17,35.2,Elgin IL,99411
USGS,01393450,Elizabeth River at Ursino Lake at Elizabeth NJ,40.675,-74.2219444,02030104,dv,00060,00003,1921-10-01,2020-01-30,35916,TRUE,34,16.9,Elizabeth NJ,124552
USGS,01393500,Elizabeth River at Elizabeth NJ,40.6683333,-74.2194444,02030104,dv,00060,00003,1921-10-01,1972-12-19,18708,TRUE,34,20.2,Elizabeth NJ,124552
USGS,01393500,Elizabeth River at Elizabeth NJ,40.6683333,-74.2194444,02030104,qw,00060,NA,1923-08-30,1972-09-18,59,TRUE,34,20.2,Elizabeth NJ,124552
USGS,04100000,"CHRISTIANA CREEK AT ELKHART, IN",41.6958825,-85.9763894,04050001,dv,00060,00003,1947-04-01,1952-03-31,1827,TRUE,18,127,Elkhart IN,51198
USGS,04101000,"ST. JOSEPH RIVER AT ELKHART, IN",41.6917158,-85.9750004,04050001,dv,00060,00003,1947-10-01,2020-01-29,26419,TRUE,18,3370,Elkhart IN,51198
USGS,04200000,East Branch Black River at Elyria OH,41.34754779,-82.0943144,04110001,dv,00060,00003,1922-08-01,2002-06-30,5302,TRUE,39,217,Elyria OH,55811
USGS,04200500,Black River at Elyria OH,41.38032368,-82.10459279,04110001,dv,00060,00003,1944-10-01,2020-01-30,27515,TRUE,39,396,Elyria OH,55811
USGS,04200500,Black River at Elyria OH,41.38032368,-82.10459279,04110001,qw,00060,NA,1962-10-14,2014-11-10,374,TRUE,39,396,Elyria OH,55811
USGS,04200550,Black River below Elyria OH,41.4117109,-82.0957034,04110001,qw,00060,NA,1967-10-11,1978-05-15,101,TRUE,39,412,Elyria OH,55811
USGS,11030730,ESCONDIDO C NR OLIVENHAIN CA,33.05059776,-117.2144798,18070303,dv,00060,00003,1972-10-01,1973-08-07,311,TRUE,06,64.6,Encinitas CA,62273
USGS,04208690,Euclid Creek near Euclid OH,41.5744942,-81.5473444,04110003,dv,00060,00003,1977-05-01,2003-02-16,2625,TRUE,39,22.6,Euclid OH,49602
USGS,04208690,Euclid Creek near Euclid OH,41.5744942,-81.5473444,04110003,qw,00060,NA,1977-11-17,1978-08-07,11,TRUE,39,22.6,Euclid OH,49602
USGS,14169300,"AMAZON CREEK AT EUGENE, OREG.",44.0123471,-123.077586,17090003,dv,00060,00003,1962-10-01,1975-09-29,4747,TRUE,41,3.35,Eugene OR,146483
USGS,03322000,"OHIO RIVER AT EVANSVILLE, IN",37.9722644,-87.5764045,05140202,dv,00060,00003,1940-10-01,1996-09-30,16602,TRUE,18,NA,Evansville IN,114237
USGS,03322100,"PIGEON CREEK AT EVANSVILLE, IND.",38.00393095,-87.538626,05140202,dv,00060,00003,1960-10-01,1985-07-31,9064,TRUE,18,323,Evansville IN,114237
USGS,12156000,"WOOD CREEK NEAR EVERETT, WA",47.92342999,-122.1845766,17110011,dv,00060,00003,1946-07-01,1948-09-29,822,TRUE,53,1.89,Everett WA,97575
USGS,01208925,"MILL RIVER NEAR FAIRFIELD, CT",41.165475,-73.2700083,01100006,dv,00060,00003,1972-10-01,2017-11-06,16473,TRUE,09,28.6,Fairfield CT,59352
USGS,01208950,"SASCO BROOK NEAR SOUTHPORT, CT",41.15287436,-73.3059495,01100006,dv,00060,00003,1964-10-01,2020-01-30,20206,TRUE,09,7.38,Fairfield CT,59352
USGS,05054000,"RED RIVER OF THE NORTH AT FARGO, ND",46.861075,-96.7836924,09020104,dv,00060,00003,1901-06-01,2020-01-30,43343,TRUE,38,6800,Fargo ND,92396
USGS,05054000,"RED RIVER OF THE NORTH AT FARGO, ND",46.861075,-96.7836924,09020104,qw,00060,NA,1949-05-16,2017-01-18,532,TRUE,38,6800,Fargo ND,92396
USGS,04166300,"UPPER RIVER ROUGE AT FARMINGTON, MI",42.46447955,-83.369655,04090004,dv,00060,00003,1958-04-01,2020-01-30,22585,TRUE,26,17.5,Farmington Hills MI,79530
USGS,09357300,"SAN JUAN RIVER AB ANIMAS RIVER AT FARMINGTON, NM",36.71944728,-108.2131298,14080104,qw,00060,NA,1964-10-01,1974-05-07,82,TRUE,35,NA,Farmington NM,44278
USGS,09357300,"SAN JUAN RIVER AB ANIMAS RIVER AT FARMINGTON, NM",36.71944728,-108.2131298,14080104,qw,00060,NA,1970-02-10,1973-09-24,32,TRUE,35,NA,Farmington NM,44278
USGS,09364500,"ANIMAS RIVER AT FARMINGTON, NM",36.7225,-108.20175,14080104,qw,00060,NA,1900-01-01,1974-05-07,636,TRUE,35,1360,Farmington NM,44278
USGS,09364500,"ANIMAS RIVER AT FARMINGTON, NM",36.7225,-108.20175,14080104,dv,00060,00003,1913-10-01,2020-01-30,35183,TRUE,35,1360,Farmington NM,44278
USGS,09364500,"ANIMAS RIVER AT FARMINGTON, NM",36.7225,-108.20175,14080104,qw,00060,NA,1969-04-02,1972-11-30,29,TRUE,35,1360,Farmington NM,44278
USGS,09365000,"SAN JUAN RIVER AT FARMINGTON, NM",36.72301667,-108.2255889,14080105,dv,00060,00003,1930-10-01,2020-01-30,32629,TRUE,35,7240,Farmington NM,44278
USGS,09365000,"SAN JUAN RIVER AT FARMINGTON, NM",36.72301667,-108.2255889,14080105,qw,00060,NA,1962-05-01,2012-05-29,780,TRUE,35,7240,Farmington NM,44278
USGS,09365000,"SAN JUAN RIVER AT FARMINGTON, NM",36.72301667,-108.2255889,14080105,qw,00060,NA,1969-08-04,1972-11-30,51,TRUE,35,7240,Farmington NM,44278
USGS,09367400,"LA PLATA RIVER TRIB NR FARMINGTON, NM",36.7861111,-108.226,14080105,dv,00060,00003,1979-10-01,1983-09-29,1460,TRUE,35,1.03,Farmington NM,44278
USGS,07048500,W Fork White River nr Fayetteville,36.05061667,-94.1184361,11010001,dv,00060,00003,1937-10-01,1945-09-29,2921,TRUE,05,118,Fayetteville AR,66288
USGS,02104000,"CAPE FEAR RIVER AT FAYETTEVILLE, NC",35.0472222,-78.8580556,03030004,dv,00060,00003,1889-01-01,1940-09-29,14880,TRUE,37,4395,Fayetteville NC,124919
USGS,04189000,Blanchard River near Findlay OH,41.05588646,-83.6879889,04100008,dv,00060,00003,1923-10-01,2020-01-30,33450,TRUE,39,346,Findlay OH,40571
USGS,04189000,Blanchard River near Findlay OH,41.05588646,-83.6879889,04100008,qw,00060,NA,1962-11-20,1971-09-30,110,TRUE,39,346,Findlay OH,40571
USGS,01094400,"NORTH NASHUA RIVER AT FITCHBURG, MA",42.57620079,-71.7881285,01070004,dv,00060,00003,1972-10-01,2020-01-30,17288,TRUE,25,64.2,Fitchburg MA,40565
USGS,09400600,"RIO DE FLAG AT FLAGSTAFF, ARIZ.",35.2216774,-111.6573843,15020015,dv,00060,00003,1957-10-01,1960-09-29,729,TRUE,04,51,Flagstaff AZ,58490
USGS,04148295,"SWARTZ CREEK AT CLAUDE AVENUE AT FLINT, MI",42.9858609,-83.7388461,04080204,dv,00060,00003,1970-01-01,2020-01-30,7061,TRUE,26,114,Flint MI,115691
USGS,04083000,"WEST BR FOND DU LAC R AT FOND DU LAC, WI",43.7624888,-88.4834405,04030203,dv,00060,00003,1939-03-10,1954-10-31,5715,TRUE,55,83.1,Fond du Lac WI,41787
USGS,04083500,"EAST BRANCH FOND DU LAC RIVER AT FOND DU LAC, WI",43.75415609,-88.4528839,04030203,dv,00060,00003,1939-03-10,1954-09-29,5683,TRUE,55,78.4,Fond du Lac WI,41787
USGS,06752260,"CACHE LA POUDRE RIVER AT FORT COLLINS, CO",40.5880833,-105.0692222,10190007,dv,00060,00003,1975-04-08,2020-01-30,16369,TRUE,08,1128,Fort Collins CO,131505
USGS,06752280,"CACHE LA POUDRE RIV AB BOXELDER CRK NR TIMNATH, CO",40.5519269,-105.011365,10190007,dv,00060,00003,1979-10-01,2020-01-30,14732,TRUE,08,1244,Fort Collins CO,131505
USGS,02282700,"MIDDLE RIVER CANAL AT S-36 NR FT LAUDERDALE, FL",26.17313998,-80.17949079,03090202,dv,00060,00003,1961-10-01,2009-09-29,17111,TRUE,12,NA,Fort Lauderdale FL,173597
USGS,02282700,"MIDDLE RIVER CANAL AT S-36 NR FT LAUDERDALE, FL",26.17313998,-80.17949079,03090202,qw,00060,NA,1965-10-16,1978-03-28,101,TRUE,12,NA,Fort Lauderdale FL,173597
USGS,08047500,"Clear Fk Trinity Rv at Ft Worth, TX",32.732353,-97.3589063,12030102,dv,00060,00003,1924-03-01,2020-01-30,35034,TRUE,48,518,Fort Worth TX,633849
USGS,08048000,"W Fk Trinity Rv at Ft Worth, TX",32.76096337,-97.3325167,12030102,dv,00060,00003,1920-10-01,2020-01-30,36281,TRUE,48,2615,Fort Worth TX,633849
USGS,08048000,"W Fk Trinity Rv at Ft Worth, TX",32.76096337,-97.3325167,12030102,qw,00060,NA,1964-01-23,1972-09-21,59,TRUE,48,2615,Fort Worth TX,633849
USGS,11078100,SANTA ANA R ADAMS ST NR COSTA MESA CA,33.67196374,-117.9458917,18070203,dv,00060,00003,1973-10-01,1977-09-29,1460,TRUE,06,1701,Fountain Valley CA,56318
USGS,02289500,"TAMIAMI CANAL NEAR CORAL GABLES, FL",25.76232213,-80.32810739,03090202,dv,00060,00003,1940-02-01,2020-01-30,22122,TRUE,12,NA,Fountainbleau FL,67124
USGS,02289500,"TAMIAMI CANAL NEAR CORAL GABLES, FL",25.76232213,-80.32810739,03090202,qw,00060,NA,1966-05-04,1977-08-24,58,TRUE,12,NA,Fountainbleau FL,67124
USGS,01098320,"BEAVERDAM BROOK AT NATICK, MA",42.28620724,-71.3817264,01070005,dv,00060,00003,1977-10-25,1979-06-05,589,TRUE,25,7.27,Framingham MA,65103
USGS,01098500,"COCHITUATE BK BL LAKE COCHITUATE AT FRAMINGHAM, MA",42.31514167,-71.3838083,01070005,dv,00060,00003,1977-10-01,2020-01-30,4055,TRUE,25,17.5,Framingham MA,65103
USGS,01098530,"SUDBURY RIVER AT SAXONVILLE, MA",42.3253732,-71.3975605,01070005,dv,00060,00003,1979-11-01,2020-01-30,14701,TRUE,25,106,Framingham MA,65103
USGS,01655000,"ACCOTINK CREEK NEAR ACCOTINK STATION, VA",38.75428059,-77.2022044,02070010,dv,00060,00003,1949-10-01,1956-09-29,2556,TRUE,51,37.1,Franconia VA,42105
USGS,03287500,"KENTUCKY RIVER AT LOCK 4 AT FRANKFORT, KY",38.2017388,-84.8816171,05100205,dv,00060,00003,1925-10-01,2020-01-30,33541,TRUE,21,5411,Frankfort KY,27210
USGS,03287500,"KENTUCKY RIVER AT LOCK 4 AT FRANKFORT, KY",38.2017388,-84.8816171,05100205,qw,00060,NA,1951-10-01,1973-09-26,604,TRUE,21,5411,Frankfort KY,27210
USGS,03432350,"HARPETH RIVER AT FRANKLIN, TN",35.9208165,-86.8654982,05130204,dv,00060,00003,1974-10-01,2020-01-30,16558,TRUE,47,192,Franklin TN,51478
USGS,01642000,"MONOCACY RIVER NEAR FREDERICK, MD",39.45260184,-77.37081789,02070009,dv,00060,00003,1896-08-01,1930-09-29,12477,TRUE,24,665,Frederick MD,58271
USGS,01643000,"MONOCACY RIVER AT JUG BRIDGE NEAR FREDERICK, MD",39.4028333,-77.3660833,02070009,dv,00060,00003,1929-10-01,2020-01-30,32994,TRUE,24,817,Frederick MD,58271
USGS,01643000,"MONOCACY RIVER AT JUG BRIDGE NEAR FREDERICK, MD",39.4028333,-77.3660833,02070009,uv,00060,NA,1972-06-09,2020-01-31,17402,TRUE,24,817,Frederick MD,58271
USGS,01310500,EAST MEADOW BROOK AT FREEPORT NY,40.66555556,-73.5697222,02030202,dv,00060,00003,1937-01-01,2020-01-30,27341,TRUE,36,28.7,Freeport NY,43377
USGS,01310500,EAST MEADOW BROOK AT FREEPORT NY,40.66555556,-73.5697222,02030202,qw,00060,NA,1966-04-22,1986-09-03,65,TRUE,36,28.7,Freeport NY,43377
USGS,11172500,LAGUNA C A IRVINGTON CA,37.5360477,-121.9607932,18050004,dv,00060,00003,1916-10-01,1919-09-29,917,TRUE,06,12.5,Fremont CA,202574
USGS,11179500,CRANDALL C NR CENTERVILLE CA,37.56938,-122.0302396,18050004,dv,00060,00003,1916-10-01,1918-09-29,729,TRUE,06,NA,Fremont CA,202574
USGS,11088500,BREA C BL BREA DAM NR FULLERTON CA,33.88779206,-117.9264496,18070106,dv,00060,00003,1942-01-01,2020-01-30,28518,TRUE,06,21.6,Fullerton CA,137126
USGS,11089000,BREA C A FULLERTON CA,33.87362567,-117.9258937,18070106,dv,00060,00003,1930-10-01,1969-09-29,14244,TRUE,06,23.6,Fullerton CA,137126
USGS,11089500,FULLERTON C BL FULLERTON DAM NR BREA CA,33.89584765,-117.8861706,18070106,dv,00060,00003,1941-10-01,2020-01-30,28611,TRUE,06,4.94,Fullerton CA,137126
USGS,11090000,FULLERTON C A FULLERTON CA,33.87279245,-117.9070042,18070106,dv,00060,00003,1935-10-01,1964-05-31,10471,TRUE,06,7.5,Fullerton CA,137126
USGS,11090200,FULLERTON C A RICHMAN AVE AT FULLERTON CA,33.86251474,-117.9328381,18070106,dv,00060,00003,1959-10-01,1981-09-29,7669,TRUE,06,12.1,Fullerton CA,137126
USGS,01644500,"GREAT SENECA CREEK NEAR GAITHERSBURG, MD",39.1670513,-77.2266491,02070008,dv,00060,00003,1925-03-19,1931-01-13,2127,TRUE,24,41,Gaithersburg MD,61649
USGS,11102750,COMPTON C A 120TH ST NR COMPTON CA,33.9239046,-118.2517393,18070105,dv,00060,00003,1974-02-01,1975-01-03,308,TRUE,06,14.5,Gardena CA,61550
USGS,08061540,"Rowlett Ck nr Sachse, TX",32.95984447,-96.6144378,12030106,dv,00060,00003,1968-03-01,2020-01-30,18963,TRUE,48,120,Garland TX,217609
USGS,04093200,"LITTLE CALUMET RIVER AT GARY, IN",41.57198089,-87.3203151,04040001,dv,00060,00003,1958-07-01,1987-11-16,4519,TRUE,18,5.82,Gary IN,96950
USGS,04093500,"BURNS DITCH AT GARY, IND.",41.5750366,-87.2889256,04040001,dv,00060,00003,1943-10-01,1991-09-30,13143,TRUE,18,160,Gary IN,96950
USGS,08104700,"N Fk San Gabriel Rv nr Georgetown, TX",30.6618592,-97.7113993,12070205,dv,00060,00003,1968-06-19,2020-01-29,18852,TRUE,48,248,Georgetown TX,41398
USGS,08104900,"S Fk San Gabriel Rv at Georgetown, TX",30.6257499,-97.6911204,12070205,dv,00060,00003,1967-12-01,2020-01-30,19054,TRUE,48,133,Georgetown TX,41398
USGS,08105000,"San Gabriel Rv at Georgetown, TX",30.6540824,-97.6552863,12070205,dv,00060,00003,1924-03-01,1987-04-01,15515,TRUE,48,405,Georgetown TX,41398
USGS,08105000,"San Gabriel Rv at Georgetown, TX",30.6540824,-97.6552863,12070205,qw,00060,NA,1961-12-11,1964-08-12,28,TRUE,48,405,Georgetown TX,41398
USGS,08105100,"Berry Ck nr Georgetown, TX",30.69130304,-97.6561202,12070205,dv,00060,00003,1967-07-20,2003-09-29,13221,TRUE,48,83.1,Georgetown TX,41398
USGS,01644500,"GREAT SENECA CREEK NEAR GAITHERSBURG, MD",39.1670513,-77.2266491,02070008,dv,00060,00003,1925-03-19,1931-01-13,2127,TRUE,24,41,Germantown MD,66720
USGS,11154200,UVAS C NR GILROY CA,36.99217114,-121.5735532,18060002,dv,00060,00003,1959-01-01,1992-09-30,12327,TRUE,06,71.2,Gilroy CA,46107
USGS,01589500,"SAWMILL CREEK AT GLEN BURNIE, MD",39.17,-76.6306111,02060003,dv,00060,00003,1944-06-01,2020-01-30,16325,TRUE,24,4.97,Glen Burnie MD,40546
USGS,11083500,SAN GABRIEL R NR AZUSA CA,34.16972858,-117.8886732,18070106,dv,00060,00003,1893-10-01,1966-09-29,26295,TRUE,06,214,Glendora CA,51929
USGS,11086000,DALTON C NR GLENDORA CA,34.1583404,-117.8286711,18070106,dv,00060,00003,1919-12-01,1962-09-29,15644,TRUE,06,7.24,Glendora CA,51929
USGS,11086500,LITTLE DALTON C NR GLENDORA CA,34.1675067,-117.8383937,18070106,dv,00060,00003,1939-01-01,1971-09-29,11594,TRUE,06,2.72,Glendora CA,51929
USGS,09514000,"BUCKEYE CANAL NEAR AVONDALE, ARIZ.",33.3939316,-112.3740469,15070101,dv,00060,00003,1953-05-01,2001-03-20,8358,TRUE,04,NA,Goodyear AZ,49748
USGS,05071500,"RED RIVER OF N AB RED LAKE R AT GRAND FORKS, ND",47.90831196,-97.0239662,09020301,qw,00060,NA,1969-07-15,1970-06-04,12,TRUE,38,NA,Grand Forks ND,48195
USGS,05082200,"RED LAKE RIVER AT EAST GRAND FORKS, MN",47.92331197,-97.0167433,09020303,qw,00060,NA,1969-08-01,1972-05-02,26,TRUE,27,5660,Grand Forks ND,48195
USGS,05082200,"RED LAKE RIVER AT EAST GRAND FORKS, MN",47.92331197,-97.0167433,09020303,qw,00060,NA,1969-08-01,1995-02-09,39,TRUE,27,5660,Grand Forks ND,48195
USGS,05082500,"RED RIVER OF THE NORTH AT GRAND FORKS, ND",47.9269234,-97.0292435,09020301,dv,00060,00003,1882-04-01,2020-01-30,50342,TRUE,38,30100,Grand Forks ND,48195
USGS,05082500,"RED RIVER OF THE NORTH AT GRAND FORKS, ND",47.9269234,-97.0292435,09020301,qw,00060,NA,1949-06-22,2017-04-19,506,TRUE,38,30100,Grand Forks ND,48195
USGS,09152650,"LEACH CREEK AT DURHAM, CO",39.09081474,-108.607595,14010005,dv,00060,00003,1973-04-01,1983-10-04,3839,TRUE,08,24.9,Grand Junction CO,46350
USGS,04119000,"GRAND RIVER AT GRAND RAPIDS, MI",42.963082,-85.6772533,04050006,dv,00060,00003,1901-03-01,2020-01-30,34396,TRUE,26,4900,Grand Rapids MI,193006
USGS,02306289,LAKE MAGDALENE OUTLET NEAR LUTZ FL,28.07418316,-82.5000954,03100206,dv,00060,00003,1970-10-01,1982-09-29,4295,TRUE,12,2.2,Greater Carrollwood FL,42586
USGS,02306500,SWEETWATER CREEK NEAR SULPHUR SPRINGS FL,28.04307328,-82.5117623,03100206,dv,00060,00003,1951-10-01,2020-01-30,24959,TRUE,12,7.43,Greater Carrollwood FL,42586
USGS,02164000,"REEDY RIVER NEAR GREENVILLE, SC",34.8001183,-82.3651213,03050109,dv,00060,00003,1941-11-21,2020-01-30,22835,TRUE,45,48.6,Greenville SC,55421
USGS,02164000,"REEDY RIVER NEAR GREENVILLE, SC",34.8001183,-82.3651213,03050109,qw,00060,NA,1960-11-21,1972-06-12,23,TRUE,45,48.6,Greenville SC,55421
USGS,02164000,"REEDY RIVER NEAR GREENVILLE, SC",34.8001183,-82.3651213,03050109,qw,00060,NA,1969-08-25,1971-09-13,19,TRUE,45,48.6,Greenville SC,55421
USGS,01209900,"RIPPOWAM RIVER AT STAMFORD, CT",41.06620794,-73.5576239,01100006,dv,00060,00003,1975-11-14,1976-09-30,322,TRUE,09,33.6,Greenwich CT,64100
USGS,01209901,"RIPPOWAM RIVER AT STAMFORD, CT.",41.0661111,-73.5492722,01100006,dv,00060,00003,1977-09-17,2020-01-30,8526,TRUE,09,34,Greenwich CT,64100
USGS,11086990,SAN JOSE C NR EL MONTE CA,34.0319553,-118.0120105,18070106,dv,00060,00003,1964-10-01,1978-09-29,5112,TRUE,06,87.8,Hacienda Heights CA,54439
USGS,01391500,Saddle River at Lodi NJ,40.89027778,-74.0805556,02030103,dv,00060,00003,1923-10-01,2020-01-30,35186,TRUE,34,54.6,Hackensack NJ,43923
USGS,01391500,Saddle River at Lodi NJ,40.89027778,-74.0805556,02030103,qw,00060,NA,1923-11-23,1972-09-18,47,TRUE,34,54.6,Hackensack NJ,43923
USGS,08048600,"Dry Br at Fain St, Ft Worth, TX",32.776241,-97.2886266,12030102,dv,00060,00003,1968-10-01,1976-09-29,2921,TRUE,48,2.15,Haltom City TX,42053
USGS,08048800,"Big Fossil Ck at Haltom City, TX",32.80735146,-97.2486256,12030102,dv,00060,00003,1959-01-01,2020-01-30,7210,TRUE,48,52.8,Haltom City TX,42053
USGS,08048850,"Little Fossil Ck at Mesquite St, Ft Worth, TX",32.80929568,-97.2914046,12030102,dv,00060,00003,1968-10-01,1976-09-29,2921,TRUE,48,12.3,Haltom City TX,42053
USGS,01196580,"MUDDY R NR NORTH HAVEN, CT",41.36870827,-72.8414888,01100004,dv,00060,00003,1962-09-01,1973-09-29,4047,TRUE,09,18,Hamden CT,60388
USGS,01196626,"MILL R AT HAMDEN, CT.",41.3359304,-72.91037969,01100004,dv,00060,00003,1974-10-01,1978-09-29,1460,TRUE,09,36.4,Hamden CT,60388
USGS,03274000,Great Miami River at Hamilton OH,39.3911674,-84.572169,05080002,dv,00060,00003,1927-04-01,2020-01-30,33908,TRUE,39,3630,Hamilton OH,61527
USGS,01570500,"Susquehanna River at Harrisburg, PA",40.25481164,-76.8860846,02050305,dv,00060,00003,1890-10-01,2020-01-30,47238,TRUE,42,24100,Harrisburg PA,47576
USGS,01570500,"Susquehanna River at Harrisburg, PA",40.25481164,-76.8860846,02050305,qw,00060,NA,1936-05-02,1973-09-27,292,TRUE,42,24100,Harrisburg PA,47576
USGS,01570500,"Susquehanna River at Harrisburg, PA",40.25481164,-76.8860846,02050305,qw,00060,NA,1970-07-29,1973-06-26,36,TRUE,42,24100,Harrisburg PA,47576
USGS,01570500,"Susquehanna River at Harrisburg, PA",40.25481164,-76.8860846,02050305,uv,00060,NA,1972-06-21,2020-01-31,17390,TRUE,42,24100,Harrisburg PA,47576
USGS,01571000,"Paxton Creek near Penbrook, PA",40.30842198,-76.8496948,02050305,dv,00060,00003,1940-03-01,1995-09-29,6855,TRUE,42,11.2,Harrisburg PA,47576
USGS,01190300,TROUT BROOK AT WEST HARTFORD CT,41.7703779,-72.7370396,01080205,dv,00060,00003,1958-05-01,1971-10-04,4905,TRUE,09,14.6,Hartford CT,123836
USGS,01190500,"SOUTH BRANCH PARK R AT HARTFORD, CT.",41.7339891,-72.7137056,01080205,dv,00060,00003,1936-10-01,1981-10-02,16438,TRUE,09,39.9,Hartford CT,123836
USGS,01191000,"NORTH BRANCH PARK RIVER AT HARTFORD, CT",41.78443889,-72.7080556,01080205,dv,00060,00003,1936-11-01,2020-01-30,20354,TRUE,09,26.8,Hartford CT,123836
USGS,01191500,"PARK R AT HARTFORD, CT.",41.7601001,-72.694538,01080205,dv,00060,00003,1936-10-01,1961-09-29,9130,TRUE,09,72.5,Hartford CT,123836
USGS,02473000,"LEAF RIVER AT HATTIESBURG, MS",31.34305556,-89.2802778,03170005,dv,00060,00003,1938-09-15,2020-01-30,29723,TRUE,28,1748,Hattiesburg MS,48728
USGS,02473000,"LEAF RIVER AT HATTIESBURG, MS",31.34305556,-89.2802778,03170005,qw,00060,NA,1943-11-30,1971-07-14,165,TRUE,28,1748,Hattiesburg MS,48728
USGS,01100700,"EAST MEADOW RIVER NEAR HAVERHILL, MA",42.811479,-71.0325568,01070002,dv,00060,00003,1962-10-29,1974-09-29,4354,TRUE,25,5.47,Haverhill MA,61928
USGS,11180750,ALAMEDA C A UNION CITY CA,37.5960455,-122.0552401,18050004,dv,00060,00003,1958-10-01,1973-09-29,5478,TRUE,06,NA,Hayward CA,140704
USGS,06063000,Tenmile Creek near Helena MT,46.60500556,-112.0882639,10030101,dv,00060,00003,1908-08-01,2020-01-30,20198,TRUE,30,98.7,Helena MT,27383
USGS,01310500,EAST MEADOW BROOK AT FREEPORT NY,40.66555556,-73.5697222,02030202,dv,00060,00003,1937-01-01,2020-01-30,27341,TRUE,36,28.7,Hempstead NY,52769
USGS,01310500,EAST MEADOW BROOK AT FREEPORT NY,40.66555556,-73.5697222,02030202,qw,00060,NA,1966-04-22,1986-09-03,65,TRUE,36,28.7,Hempstead NY,52769
USGS,01311000,PINES BROOK AT MALVERNE NY,40.66638889,-73.6591667,02030202,dv,00060,00003,1937-01-01,1999-01-31,22470,TRUE,36,10.1,Hempstead NY,52769
USGS,01311000,PINES BROOK AT MALVERNE NY,40.66638889,-73.6591667,02030202,qw,00060,NA,1966-05-05,1972-06-07,11,TRUE,36,10.1,Hempstead NY,52769
USGS,03426310,"CUMBERLAND RIVER AT OLD HICKORY DAM (TW), TN",36.29711845,-86.6586324,05130202,dv,00060,00003,1931-10-01,2007-09-29,25931,TRUE,47,11673,Hendersonville TN,45358
USGS,02288200,MIAMI CANAL AT PALMETTO BYPASS  NR HIALEAH,25.8534299,-80.3225513,03090202,dv,00060,00003,1959-12-01,1981-03-31,7792,TRUE,12,NA,Hialeah FL,224644
USGS,02288200,MIAMI CANAL AT PALMETTO BYPASS  NR HIALEAH,25.8534299,-80.3225513,03090202,qw,00060,NA,1966-05-06,1978-06-05,12,TRUE,12,NA,Hialeah FL,224644
USGS,02288500,"MIAMI CANAL AT WATER PLANT AT HIALEAH, FL",25.8275974,-80.2872727,03090202,qw,00060,NA,1941-03-02,1959-02-27,97,TRUE,12,NA,Hialeah FL,224644
USGS,02098500,"WEST FORK DEEP RIVER NR HIGH POINT, NC",36.00430345,-79.97809379,03030003,dv,00060,00003,1923-07-01,1958-09-29,12143,TRUE,37,32.1,High Point NC,96011
USGS,11055350,PLUNGE C UP DIV NR EAST HIGHLANDS CA,34.13973269,-117.1494826,18070203,dv,00060,00003,1965-10-01,2012-11-14,14069,TRUE,06,NA,Highland CA,52692
USGS,11055351,PLUNGE C UP AND MID DIV NR FONTANA CA,34.13973269,-117.1497604,18070203,dv,00060,00003,1974-10-01,1981-09-29,2556,TRUE,06,NA,Highland CA,52692
USGS,11055400,PLUNGE C MID DIV NR EAST HIGHLANDS CA,34.1233444,-117.140593,18070203,dv,00060,00003,1974-10-01,2012-11-14,13558,TRUE,06,NA,Highland CA,52692
USGS,11055500,PLUNGE C NR EAST HIGHLANDS CA,34.11834458,-117.141704,18070203,dv,00060,00003,1919-02-01,2020-01-30,36889,TRUE,06,16.9,Highland CA,52692
USGS,11055501,PLUNGE C NR EAST HIGHLANDS AND CANALS CA,34.11834458,-117.141704,18070203,dv,00060,00003,1951-04-01,2012-09-29,22463,TRUE,06,16.9,Highland CA,52692
USGS,11055700,CITY C WATER CO CN NR HIGHLAND CA,34.14417698,-117.1892063,18070203,dv,00060,00003,1927-10-01,2020-01-05,21348,TRUE,06,NA,Highland CA,52692
USGS,11055800,CITY C NR HIGHLAND CA,34.1438992,-117.1886507,18070203,dv,00060,00003,1919-10-01,2020-01-30,36647,TRUE,06,19.6,Highland CA,52692
USGS,11055801,CITY C NR HIGHLAND CA.+ CANALS CA,34.1438992,-117.1886507,18070203,dv,00060,00003,1924-05-27,2020-01-05,34922,TRUE,06,19.6,Highland CA,52692
USGS,16701200,"Waiakea Stream near Hilo, HI",19.69197778,-155.094725,20010000,dv,00060,00003,1957-06-01,1967-06-30,3682,TRUE,15,35.15,Hilo HI,43466
USGS,16709000,"Kapehu Stream at Piihonua near Hilo, HI",19.71779722,-155.1388917,20010000,dv,00060,00003,1928-12-01,1936-12-31,2953,TRUE,15,4.84,Hilo HI,43466
USGS,16713000,"Wailuku River at Hilo, HI",19.72554167,-155.0916694,20010000,dv,00060,00003,1977-03-01,1995-09-29,6238,TRUE,15,245.48,Hilo HI,43466
USGS,02286100,"SOUTH NEW RIVER CANAL AT S-13 NR DAVIE, FL",26.0661996,-80.2086586,03090202,dv,00060,00003,1957-03-01,2004-09-29,17010,TRUE,12,NA,Hollywood FL,145877
USGS,02286100,"SOUTH NEW RIVER CANAL AT S-13 NR DAVIE, FL",26.0661996,-80.2086586,03090202,qw,00060,NA,1962-03-01,1977-09-30,88,TRUE,12,NA,Hollywood FL,145877
USGS,01172000,"CONNECTICUT RIVER AT HOLYOKE, MA",42.21398075,-72.6023116,01080201,dv,00060,00003,1890-10-01,1899-12-31,3379,TRUE,25,8309,Holyoke MA,40143
USGS,16231700,"MOOLE DITCH MAKAI STATION NR HONOLULU,OAHU,HI",21.35656944,-157.8083639,20060000,dv,00060,00003,1917-11-01,1923-03-02,1667,TRUE,15,NA,Honolulu HI,386345
USGS,16232000,"Nuuanu Str bl Res 2 Wasteway nr Honolulu, Oahu, HI",21.34608333,-157.8249167,20060000,dv,00060,00003,1913-11-01,1996-01-02,29587,TRUE,15,3.35,Honolulu HI,386345
USGS,16238500,"Waihi Stream at Honolulu, Oahu, HI",21.3283611,-157.800861,20060000,dv,00060,00003,1913-06-01,2020-01-30,27086,TRUE,15,1.12,Honolulu HI,386345
USGS,16239500,"EAST MANOA DITCH NR HONOLULU, OAHU, HI",21.32740278,-157.7986417,20060000,dv,00060,00003,1915-06-01,1939-06-30,6450,TRUE,15,NA,Honolulu HI,386345
USGS,16240500,"Waiakeakua Str at Honolulu, Oahu, HI",21.32822222,-157.799611,20060000,dv,00060,00003,1913-06-01,2020-01-30,37256,TRUE,15,1.05,Honolulu HI,386345
USGS,16240501,COMBINED RECORDS STAS 16239500 AND 16240500,21.32795833,-157.8000306,20060000,dv,00060,00003,1915-10-01,1939-06-30,6328,TRUE,15,1.06,Honolulu HI,386345
USGS,16242000,"MANOA STR AT COLLEGE OF HAWAII NR HONO,OAHU,HI",21.29962778,-157.8139222,20060000,dv,00060,00003,1909-04-01,1918-09-29,2193,TRUE,15,4.99,Honolulu HI,386345
USGS,16244000,"Pukele Stream near Honolulu, Oahu, HI",21.30666667,-157.7883333,20060000,dv,00060,00003,1926-07-01,2020-01-30,25292,TRUE,15,1.15,Honolulu HI,386345
USGS,16246000,"Waiomao Stream near Honolulu, Oahu, HI",21.30666667,-157.7805556,20060000,dv,00060,00003,1911-05-01,2014-10-16,18067,TRUE,15,1.05,Honolulu HI,386345
USGS,16247000,"Palolo Stream near Honolulu, Oahu, HI",21.28927778,-157.8046389,20060000,dv,00060,00003,1952-04-01,1979-10-16,10060,TRUE,15,3.72,Honolulu HI,386345
USGS,16250000,"Maunawili Ditch nr Waimanalo, Oahu, HI",21.34267778,-157.750311,20060000,dv,00060,00003,1954-04-01,2002-10-02,8585,TRUE,15,NA,Honolulu HI,386345
USGS,16254000,"Makawao Str nr Kailua, Oahu, HI",21.3595,-157.7621667,20060000,dv,00060,00003,1912-12-01,2020-01-30,23133,TRUE,15,2.03,Honolulu HI,386345
USGS,02423500,CAHABA RIVER NEAR ACTON AL,33.36344373,-86.8130446,03150202,dv,00060,00003,1938-10-01,2020-01-30,18870,TRUE,01,230,Hoover AL,67576
USGS,08074000,"Buffalo Bayou at Houston, TX",29.76022829,-95.4085505,12040104,dv,00060,00003,1936-06-01,2019-11-10,16030,TRUE,48,336,Houston TX,2043005
USGS,08074000,"Buffalo Bayou at Houston, TX",29.76022829,-95.4085505,12040104,qw,00060,NA,1969-02-14,1972-08-28,34,TRUE,48,336,Houston TX,2043005
USGS,08074500,"Whiteoak Bayou at Houston, TX",29.77522777,-95.3971612,12040104,dv,00060,00003,1936-05-25,2020-01-30,30545,TRUE,48,95.1,Houston TX,2043005
USGS,08074500,"Whiteoak Bayou at Houston, TX",29.77522777,-95.3971612,12040104,qw,00060,NA,1969-11-10,1972-09-12,38,TRUE,48,95.1,Houston TX,2043005
USGS,08074550,"Little Whiteoak Bayou at Houston, TX",29.79272709,-95.3685491,12040104,qw,00060,NA,1971-05-11,1972-09-13,23,TRUE,48,20.9,Houston TX,2043005
USGS,11098500,LOS ANGELES R NR DOWNEY CA,33.94945899,-118.1739592,18070105,dv,00060,00003,1928-03-01,1978-09-29,18475,TRUE,06,599,Huntington Park CA,64308
USGS,03206500,"FOURPOLE C AT HUNTINGTON, WV",38.40424926,-82.4790442,05090101,dv,00060,00003,1940-03-01,1948-09-29,3135,TRUE,54,21.5,Huntington WV,47905
USGS,03575860,BIG SPRING AT HUNTSVILLE AL                N 185,34.7295354,-86.5866592,06030002,qw,00060,NA,1967-10-11,1970-12-07,17,TRUE,01,NA,Huntsville AL,169155
USGS,03575930,BROGLAN BRANCH AT HOLMES AVE AT HUNTSVILLE AL,34.72925765,-86.60860449,06030002,dv,00060,00003,1970-10-01,1974-06-10,625,TRUE,01,8.87,Huntsville AL,169155
USGS,03575950,"HUNTSVILLE SP BR AT JOHNSON ROAD, HUNTSVILLE AL",34.6900911,-86.5963817,06030002,qw,00060,NA,1971-10-14,1972-09-28,13,TRUE,01,41.8,Huntsville AL,169155
USGS,07142800,"ARKANSAS R AT HUTCHINSON, KS",38.03775865,-97.9342523,11030010,dv,00060,00003,1895-05-13,1905-09-29,3792,TRUE,20,37869,Hutchinson KS,40386
USGS,06894000,"Little Blue River near Lake City, MO",39.1005609,-94.3005038,10300101,dv,00060,00003,1948-04-01,2020-01-30,26237,TRUE,29,184,Independence MO,110124
USGS,03353160,"PLEASANT RN AT BROOKVILLE RD AT INDPLS, IND.",39.76448737,-86.0952626,05120201,dv,00060,00003,1959-12-01,1981-05-13,7835,TRUE,18,10.1,Indianapolis IN,771725
USGS,10259300,WHITEWATER R A INDIO CA,33.7372434,-116.236118,18100201,dv,00060,00003,1966-03-01,2020-01-30,19693,TRUE,06,1073,Indio CA,69736
USGS,05454300,"Clear Creek near Coralville, IA",41.67668186,-91.5987812,07080209,dv,00060,00003,1952-10-01,2020-01-30,24593,TRUE,19,98.1,Iowa City IA,64490
USGS,05454300,"Clear Creek near Coralville, IA",41.67668186,-91.5987812,07080209,qw,00060,NA,1964-11-05,1973-09-10,131,TRUE,19,98.1,Iowa City IA,64490
USGS,05454500,"Iowa River at Iowa City, IA",41.6566832,-91.5410017,07080209,dv,00060,00003,1903-06-01,2020-01-30,42612,TRUE,19,3271,Iowa City IA,64490
USGS,05454500,"Iowa River at Iowa City, IA",41.6566832,-91.5410017,07080209,qw,00060,NA,1944-01-01,1973-09-10,239,TRUE,19,3271,Iowa City IA,64490
USGS,05455000,"Ralston Creek at Iowa City, IA",41.6639057,-91.5135014,07080209,dv,00060,00003,1924-09-01,1987-09-29,23039,TRUE,19,3.01,Iowa City IA,64490
USGS,05455000,"Ralston Creek at Iowa City, IA",41.6639057,-91.5135014,07080209,qw,00060,NA,1954-04-06,1973-09-10,118,TRUE,19,3.01,Iowa City IA,64490
USGS,05455010,"South Branch Ralston Creek at Iowa City, IA",41.65140608,-91.5076675,07080209,dv,00060,00003,1963-10-01,1995-09-30,11688,TRUE,19,2.94,Iowa City IA,64490
USGS,05455010,"South Branch Ralston Creek at Iowa City, IA",41.65140608,-91.5076675,07080209,qw,00060,NA,1967-04-27,1973-09-10,83,TRUE,19,2.94,Iowa City IA,64490
USGS,04232000,GENESEE RIVER AT ROCHESTER NY,43.1806176,-77.6275019,04130003,dv,00060,00003,1904-04-01,2005-09-29,36474,TRUE,36,2482,Irondequoit NY,51825
USGS,04232006,GENESEE R AT CHARLOTTE DOCKS AT ROCHESTER NY,43.2239508,-77.616113,04130003,qw,00060,NA,1970-10-16,1994-08-11,106,TRUE,36,2489,Irondequoit NY,51825
USGS,11048000,PETERS CYN WASH NR TUSTIN CA,33.67502016,-117.835611,18070204,dv,00060,00003,1930-10-01,1940-09-29,3652,TRUE,06,92,Irvine CA,199755
USGS,11048500,SAN DIEGO C AT CULVER DRIVE NR IRVINE CA,33.6816868,-117.8094992,18070204,dv,00060,00003,1949-10-01,1985-09-29,13148,TRUE,06,41.8,Irvine CA,199755
USGS,11048550,SAN DIEGO C A LANE RD NR IRVINE CA,33.672798,-117.8358888,18070204,dv,00060,00003,1972-04-01,1977-09-29,2008,TRUE,06,NA,Irvine CA,199755
USGS,11048555,SAN DIEGO C A CAMPUS DRIVE NR IRVINE CA,33.65557629,-117.8456113,18070204,dv,00060,00003,1977-10-01,1985-09-29,1824,TRUE,06,111,Irvine CA,199755
USGS,01393000,Elizabeth R at Irvington NJ,40.7361111,-74.2291667,02030104,dv,00060,00003,1930-10-01,1938-09-29,2921,TRUE,34,2.91,Irvington NJ,61373
USGS,02486000,"PEARL RIVER AT JACKSON, MS",32.28138889,-90.1788889,03180002,dv,00060,00003,1901-10-01,2020-01-30,36647,TRUE,28,3171,Jackson MS,175085
USGS,07027500,"SOUTH FORK FORKED DEER RIVER AT JACKSON, TN",35.593962,-88.8145023,08010205,dv,00060,00003,1929-07-01,1991-06-06,17304,TRUE,47,495,Jackson TN,62552
USGS,02246500,"ST. JOHNS RIVER AT JACKSONVILLE, FL",30.3224616,-81.6653735,03080103,dv,00060,00003,1971-10-01,2020-01-30,11414,TRUE,12,8850,Jacksonville FL,809874
USGS,03486500,"BRUSH CREEK AT JOHNSON CITY, TENN",36.32288399,-82.3495837,06010103,dv,00060,00003,1932-06-16,1933-12-31,564,TRUE,47,10.3,Johnson City TN,59183
USGS,05538000,"DES PLAINES RIVER AT JOLIET, IL",41.53169759,-88.084781,07120004,dv,00060,00003,1914-12-04,1932-02-20,6265,TRUE,17,1503,Joliet IL,141246
USGS,05538500,"SPRING CREEK AT JOLIET, IL",41.5297532,-88.0667247,07120004,dv,00060,00003,1925-07-15,1933-11-20,3051,TRUE,17,19.6,Joliet IL,141246
USGS,05539000,"HICKORY CREEK AT JOLIET, IL",41.515031,-88.0733913,07120004,dv,00060,00003,1944-10-01,2020-01-30,27515,TRUE,17,107.5,Joliet IL,141246
USGS,05539000,"HICKORY CREEK AT JOLIET, IL",41.515031,-88.0733913,07120004,uv,00060,NA,1950-10-01,2020-01-31,25324,TRUE,17,107.5,Joliet IL,141246
USGS,07186500,"Turkey Creek at Joplin, MO",37.11265,-94.5257222,11070207,dv,00060,00003,1932-10-01,1939-09-29,2555,TRUE,29,33,Joplin MO,47060
USGS,07187500,"Shoal Creek near Joplin, MO",37.03478439,-94.5418911,11070207,dv,00060,00003,1924-04-01,1941-09-29,6391,TRUE,29,458,Joplin MO,47060
USGS,15050000,GOLD C AT JUNEAU AK,58.30661738,-134.403159,19010301,dv,00060,00003,1916-08-01,2006-09-29,17682,TRUE,02,9.7,Juneau AK,31187
USGS,15108800,LAWSON C AT DOUGLAS AK,58.28439416,-134.4128813,19010301,dv,00060,00003,1966-10-01,2013-09-29,2432,TRUE,02,3.2,Juneau AK,31187
USGS,02277700,22  C-18 CA AB S-46 @ SR 706 NR JUPITER FL,26.93422439,-80.1417101,03090202,dv,00060,00003,1959-03-01,1965-09-29,2401,TRUE,12,NA,Jupiter FL,51126
USGS,02277700,22  C-18 CA AB S-46 @ SR 706 NR JUPITER FL,26.93422439,-80.1417101,03090202,qw,00060,NA,1960-10-21,1964-03-04,25,TRUE,12,NA,Jupiter FL,51126
USGS,04106300,"PORTAGE CREEK NEAR KALAMAZOO, MI",42.2461111,-85.575,04050003,dv,00060,00003,1964-10-01,2008-12-31,16163,TRUE,26,22.4,Kalamazoo MI,73504
USGS,04106320,"WEST FORK PORTAGE CREEK NEAR OSHTEMO, MI",42.23531839,-85.6483389,04050003,dv,00060,00003,1972-05-01,2020-01-30,13669,TRUE,26,13,Kalamazoo MI,73504
USGS,04106400,"WEST FORK PORTAGE CREEK AT KALAMAZOO, MI",42.2444854,-85.6144495,04050003,dv,00060,00003,1959-09-10,2020-01-30,22058,TRUE,26,18.7,Kalamazoo MI,73504
USGS,04106500,"PORTAGE CREEK AT KALAMAZOO, MI",42.2742075,-85.5763942,04050003,dv,00060,00003,1947-10-01,2020-01-30,8827,TRUE,26,46.8,Kalamazoo MI,73504
USGS,06893000,"Missouri River at Kansas City, MO",39.1117222,-94.5881389,10300101,dv,00060,00003,1928-10-01,2020-01-30,33359,TRUE,29,484100,Kansas City MO,441833
USGS,02290610,"SNAPPER CREEK C AT MILLER DRIVE NR SMIAMI, FLA",25.7159351,-80.3828313,03090202,qw,00060,NA,1960-10-03,1976-09-01,17,TRUE,12,NA,Kendale Lakes FL,62715
USGS,02290610,"SNAPPER CREEK C AT MILLER DRIVE NR SMIAMI, FLA",25.7159351,-80.3828313,03090202,qw,00060,NA,1960-10-03,1976-09-01,17,TRUE,12,NA,Kendall FL,84549
USGS,12113340,"GREEN RIVER AT 212 ST NEAR KENT, WA",47.41232205,-122.2648442,17110013,qw,00060,NA,1970-12-01,1971-09-27,18,TRUE,53,NA,Kent WA,82896
USGS,03487499,"SOUTH FORK HOLSTON RIVER AT KINGSPORT(MAIN), TEN",36.53081209,-82.558057,06010102,dv,00060,00003,1965-10-01,1977-10-11,4394,TRUE,47,NA,Kingsport TN,43776
USGS,03487500,"SOUTH FORK HOLSTON RIVER AT KINGSPORT, TENN",36.5231318,-82.5457063,06010102,dv,00060,00003,1925-10-01,1977-09-29,18992,TRUE,47,1935,Kingsport TN,43776
USGS,03487501,"SOUTH FORK HOLSTON RIVER AT KINGSPORT, TN (AUX)",36.52562046,-82.5587236,06010102,dv,00060,00003,1973-10-01,1977-10-11,1472,TRUE,47,NA,Kingsport TN,43776
USGS,12120500,"JUANITA CREEK NEAR KIRKLAND, WA",47.7073207,-122.2154024,17110012,dv,00060,00003,1945-07-01,1990-06-03,9654,TRUE,53,6.69,Kirkland WA,45913
USGS,12125000,"SAMMAMISH RIVER NEAR REDMOND, WA",47.6692659,-122.1317898,17110012,dv,00060,00003,1939-02-01,1957-04-30,6664,TRUE,53,150,Kirkland WA,45913
USGS,12125200,"SAMMAMISH RIVER NEAR WOODINVILLE, WA",47.70343228,-122.1437349,17110012,dv,00060,00003,1965-02-01,2006-06-30,15125,TRUE,53,159,Kirkland WA,45913
USGS,02263800,"SHINGLE CREEK AT AIRPORT NEAR KISSIMMEE, FL",28.3041775,-81.450905,03090101,dv,00060,00003,1958-10-01,2020-01-30,22402,TRUE,12,89.2,Kissimmee FL,67085
USGS,02264495,"SHINGLE CREEK AT CAMPBELL, FL",28.26723444,-81.4478495,03090101,dv,00060,00003,1968-10-01,2020-01-30,18744,TRUE,12,180,Kissimmee FL,67085
USGS,03496200,"FIRST CREEK ABOVE POWERS AVENUE AT KNOXVILLE, TN",36.00980465,-83.921296,06010201,dv,00060,00003,1963-10-01,1970-09-29,2556,TRUE,47,17.2,Knoxville TN,172000
USGS,03496500,"FIRST CR AT FIFTH AVE, KNOXVILLE, TENN.",35.9778606,-83.91407269,06010201,dv,00060,00003,1932-07-01,1958-12-31,5632,TRUE,47,21.1,Knoxville TN,172000
USGS,03333600,"KOKOMO CREEK NEAR KOKOMO, IN",40.44114916,-86.0888792,05120107,dv,00060,00003,1959-08-01,2012-01-10,19156,TRUE,18,24.7,Kokomo IN,46130
USGS,03333700,"WILDCAT CREEK AT KOKOMO, IN",40.47088889,-86.1529167,05120107,dv,00060,00003,1955-10-01,2020-01-30,23498,TRUE,18,242,Kokomo IN,46130
USGS,05383500,"MISSISSIPPI RIVER AT LA CROSSE, WI",43.8136111,-91.2588889,07040006,dv,00060,00003,1929-06-01,1955-09-29,9527,TRUE,55,62800,La Crosse WI,50147
USGS,03335000,"WILDCAT CREEK NEAR LAFAYETTE, IN",40.44059108,-86.8291752,05120107,dv,00060,00003,1954-06-01,2020-01-30,23925,TRUE,18,794,Lafayette IN,62589
USGS,03335000,"WILDCAT CREEK NEAR LAFAYETTE, IN",40.44059108,-86.8291752,05120107,qw,00060,NA,1971-02-19,1990-05-14,22,TRUE,18,794,Lafayette IN,62589
USGS,03335500,"WABASH RIVER AT LAFAYETTE, IN",40.42194444,-86.8969444,05120108,dv,00060,00003,1923-10-01,2020-01-30,35186,TRUE,18,7267,Lafayette IN,62589
USGS,03335500,"WABASH RIVER AT LAFAYETTE, IN",40.42194444,-86.8969444,05120108,qw,00060,NA,1965-02-11,1967-09-11,18,TRUE,18,7267,Lafayette IN,62589
USGS,11046501,SAN JUAN C AND CWC CANAL NR SAN JUAN CAPISTRANO CA,33.49169349,-117.6631063,18070301,dv,00060,00003,1954-10-01,1969-09-29,5478,TRUE,06,117,Laguna Niguel CA,67009
USGS,11046550,SAN JUAN C AT SAN JUAN CAPISTRANO CA,33.49169349,-117.6631063,18070301,dv,00060,00003,1969-10-01,1985-09-29,5843,TRUE,06,117,Laguna Niguel CA,67009
USGS,11047000,ARROYO TRABUCO NR SAN JUAN CAPISTRANO CA,33.5266924,-117.6697733,18070301,dv,00060,00003,1930-10-01,1981-09-29,15978,TRUE,06,35.7,Laguna Niguel CA,67009
USGS,11047200,OSO C A CROWN VALLEY PKWY NR MISSION VIEJO CA,33.55808028,-117.6767179,18070301,dv,00060,00003,1969-12-01,1981-09-29,4321,TRUE,06,14,Laguna Niguel CA,67009
USGS,11047300,ARROYO TRABUCO A SAN JUAN CAPISTRANO CA,33.49835999,-117.6658843,18070301,dv,00060,00003,1972-10-01,2020-01-30,12902,TRUE,06,54.1,Laguna Niguel CA,67009
USGS,11070500,SAN JACINTO R NR ELSINORE CA,33.66418858,-117.293927,18070202,dv,00060,00003,1916-01-01,2020-01-30,38016,TRUE,06,723,Lake Elsinore CA,43336
USGS,11047500,ALISO C A EL TORO CA,33.62613356,-117.6850513,18070301,dv,00060,00003,1930-10-01,1980-09-29,18262,TRUE,06,7.91,Lake Forest CA,76859
USGS,02304500,HILLSBOROUGH RIVER NEAR TAMPA FL,28.02390784,-82.4275939,03100205,dv,00060,00003,1938-10-01,2020-01-30,29641,TRUE,12,624,Lake Magdalene FL,40413
USGS,02304500,HILLSBOROUGH RIVER NEAR TAMPA FL,28.02390784,-82.4275939,03100205,qw,00060,NA,1956-11-06,1972-08-28,19,TRUE,12,624,Lake Magdalene FL,40413
USGS,02305500,DR DITCH AT BEARS AVE NEAR SULPHUR SPRINGS FL,28.0880715,-82.4650944,03100205,dv,00060,00003,1946-07-01,1956-09-29,3744,TRUE,12,12,Lake Magdalene FL,40413
USGS,02306000,SULPHUR SPRINGS AT SULPHUR SPRINGS FL,28.02113004,-82.451761,03100205,dv,00060,00003,1959-07-01,2020-01-30,22129,TRUE,12,NA,Lake Magdalene FL,40413
USGS,02306000,SULPHUR SPRINGS AT SULPHUR SPRINGS FL,28.02113004,-82.451761,03100205,dv,00060,00003,1974-04-25,2011-09-29,6164,TRUE,12,NA,Lake Magdalene FL,40413
USGS,02306289,LAKE MAGDALENE OUTLET NEAR LUTZ FL,28.07418316,-82.5000954,03100206,dv,00060,00003,1970-10-01,1982-09-29,4295,TRUE,12,2.2,Lake Magdalene FL,40413
USGS,02306500,SWEETWATER CREEK NEAR SULPHUR SPRINGS FL,28.04307328,-82.5117623,03100206,dv,00060,00003,1951-10-01,2020-01-30,24959,TRUE,12,7.43,Lake Magdalene FL,40413
USGS,11088000,SAN GABRIEL R A SPRING ST NR LOS ALAMITOS CA,33.81196059,-118.0908983,18070106,dv,00060,00003,1936-10-01,1979-09-29,15209,TRUE,06,472,Lakewood CA,82632
USGS,11090700,COYOTE C A LOS ALAMITOS CA,33.81057157,-118.075342,18070106,dv,00060,00003,1963-10-01,1979-09-29,5780,TRUE,06,150,Lakewood CA,82632
USGS,01408120,North Branch Metedeconk River near Lakewood NJ,40.09166667,-74.1525,02040301,dv,00060,00003,1972-10-01,2020-01-30,17288,TRUE,34,34.9,Lakewood NJ,43436
USGS,01408140,South Branch Metedeconk River at Lakewood NJ,40.08666667,-74.2122222,02040301,dv,00060,00003,1972-10-01,1976-09-29,1460,TRUE,34,26,Lakewood NJ,43436
USGS,04201555,Rocky River above STP near Lakewood OH,41.46949236,-81.8315253,04110001,qw,00060,NA,1977-09-29,1978-09-07,25,TRUE,39,291,Lakewood OH,51999
USGS,12090500,"CLOVER CREEK NEAR TILLICUM, WA",47.14593158,-122.5104019,17110019,dv,00060,00003,1949-07-01,2020-01-30,11866,TRUE,53,73.8,Lakewood WA,58995
USGS,12091000,"CHAMBERS CR AT STEILACOOM LK NEAR STEILACOOM, WA",47.17759809,-122.5359586,17110019,dv,00060,00003,1938-10-01,1940-09-29,730,TRUE,53,89.4,Lakewood WA,58995
USGS,12091000,"CHAMBERS CR AT STEILACOOM LK NEAR STEILACOOM, WA",47.17759809,-122.5359586,17110019,qw,00060,NA,1962-10-04,1964-09-15,24,TRUE,53,89.4,Lakewood WA,58995
USGS,12091040,"CHAMBERS CREEK AB FLETT CREEK NEAR STEILACOOM, WA",47.1909315,-122.5281807,17110019,dv,00060,00003,1965-10-08,1971-09-29,2170,TRUE,53,90.4,Lakewood WA,58995
USGS,12091050,"FLETT CREEK AT 74TH ST AT TACOMA, WA",47.19037638,-122.4867907,17110019,dv,00060,00003,1959-06-01,1963-09-29,1582,TRUE,53,4.23,Lakewood WA,58995
USGS,12091060,"FLETT CREEK AT MT VIEW MEMORIAL PARK, WA",47.18482078,-122.4892906,17110019,dv,00060,00003,1967-10-01,1979-10-04,4387,TRUE,53,5.91,Lakewood WA,58995
USGS,12091070,"FLETT CREEK BELOW FLETT SPRINGS AT TACOMA, WA",47.18037617,-122.5040132,17110019,dv,00060,00003,1959-07-01,1965-09-29,2283,TRUE,53,6.72,Lakewood WA,58995
USGS,12091100,"FLETT CREEK AT TACOMA, WA",47.1888583,-122.5201028,17110019,dv,00060,00003,1959-06-01,2020-01-29,20615,TRUE,53,7.33,Lakewood WA,58995
USGS,12091100,"FLETT CREEK AT TACOMA, WA",47.1888583,-122.5201028,17110019,qw,00060,NA,1962-10-04,1965-09-08,37,TRUE,53,7.33,Lakewood WA,58995
USGS,12091300,"LEACH CREEK NEAR STEILACOOM, WA",47.1981538,-122.522625,17110019,dv,00060,00003,1957-02-01,2005-04-29,16549,TRUE,53,6.56,Lakewood WA,58995
USGS,12091300,"LEACH CREEK NEAR STEILACOOM, WA",47.1981538,-122.522625,17110019,qw,00060,NA,1962-10-04,1965-09-08,35,TRUE,53,6.56,Lakewood WA,58995
USGS,12091500,"CHAMBERS CREEK BL LEACH CREEK NEAR STEILACOOM, WA",47.1975982,-122.5287364,17110019,dv,00060,00003,1938-01-01,2020-01-30,17275,TRUE,53,104,Lakewood WA,58995
USGS,12091500,"CHAMBERS CREEK BL LEACH CREEK NEAR STEILACOOM, WA",47.1975982,-122.5287364,17110019,qw,00060,NA,1955-02-18,1966-09-27,48,TRUE,53,104,Lakewood WA,58995
USGS,01576500,"Conestoga River at Lancaster, PA",40.05009748,-76.2771798,02050306,dv,00060,00003,1928-10-01,2020-01-30,33055,TRUE,42,324,Lancaster PA,54390
USGS,01576500,"Conestoga River at Lancaster, PA",40.05009748,-76.2771798,02050306,qw,00060,NA,1957-10-12,1972-09-29,396,TRUE,42,324,Lancaster PA,54390
USGS,08459000,"Rio Grande at Laredo, TX",27.49612957,-99.4905972,13080002,qw,00060,NA,1973-08-27,1977-09-14,90,TRUE,48,132578,Laredo TX,218041
USGS,02307731,ALLEN CREEK NEAR LARGO FL,27.9419656,-82.7498233,03100206,dv,00060,00003,1947-02-12,2006-07-19,4236,TRUE,12,1.7,Largo FL,71688
USGS,08363600,"LAS CRUCES ARR NR LAS CRUCES, NM",32.31537144,-106.7505587,13030102,dv,00060,00003,1958-10-01,1966-09-29,2921,TRUE,35,13.5,Las Cruces NM,81473
USGS,02283200,"PLANTATION RD CA AT S-33 NR FT LAUDERDALE, FL",26.13508588,-80.1947691,03090202,dv,00060,00003,1962-04-01,2004-09-29,15300,TRUE,12,NA,Lauderhill FL,60308
USGS,02283200,"PLANTATION RD CA AT S-33 NR FT LAUDERDALE, FL",26.13508588,-80.1947691,03090202,qw,00060,NA,1964-10-28,1978-09-19,112,TRUE,12,NA,Lauderhill FL,60308
USGS,03352000,"LAWRENCE CREEK AT F BENJAMIN HARRISON, IND.",39.86920635,-86.0235947,05120201,dv,00060,00003,1952-04-01,1969-09-29,6025,TRUE,18,2.74,Lawrence IN,42451
USGS,03352200,"MUD CREEK AT INDIANAPOLIS, IND.",39.89170567,-86.0158169,05120201,dv,00060,00003,1958-06-01,1976-09-29,6696,TRUE,18,42.4,Lawrence IN,42451
USGS,06891483,"WAKARUSA R BL CLINTON DAM, KS",38.92055866,-95.2883067,10270104,dv,00060,00003,1972-12-01,1980-10-30,2891,TRUE,20,412,Lawrence KS,83948
USGS,06891488,"EB YANKEE TANK C NR LAWRENCE, KS",38.94722459,-95.3191405,10270104,dv,00060,00003,1968-10-01,1973-09-29,1825,TRUE,20,1.35,Lawrence KS,83948
USGS,06891488,"EB YANKEE TANK C NR LAWRENCE, KS",38.94722459,-95.3191405,10270104,qw,00060,NA,1969-01-02,1972-09-15,21,TRUE,20,1.35,Lawrence KS,83948
USGS,06891490,"YANKEE TANK C NR LAWRENCE, KS",38.9352804,-95.3163628,10270104,dv,00060,00003,1968-10-01,1973-09-29,1825,TRUE,20,3.9,Lawrence KS,83948
USGS,06891490,"YANKEE TANK C NR LAWRENCE, KS",38.9352804,-95.3163628,10270104,qw,00060,NA,1968-12-18,1972-09-07,32,TRUE,20,3.9,Lawrence KS,83948
USGS,06891500,"WAKARUSA R NR LAWRENCE, KS",38.9113923,-95.261084,10270104,dv,00060,00003,1929-04-27,2020-01-30,33151,TRUE,20,425,Lawrence KS,83948
USGS,06891500,"WAKARUSA R NR LAWRENCE, KS",38.9113923,-95.261084,10270104,qw,00060,NA,1958-03-19,1981-03-30,110,TRUE,20,425,Lawrence KS,83948
USGS,10141500,"HOLMES CREEK NEAR KAYSVILLE, UTAH",41.0549439,-111.8952175,16020102,dv,00060,00003,1950-05-01,1966-09-29,5996,TRUE,49,2.49,Layton UT,63096
USGS,01094500,"NORTH NASHUA RIVER NEAR LEOMINSTER, MA",42.49506389,-71.7219333,01070004,dv,00060,00003,1935-09-17,2020-01-30,30817,TRUE,25,110,Leominster MA,42479
USGS,01309500,MASSAPEQUA CREEK AT MASSAPEQUA NY,40.68888889,-73.4547222,02030202,dv,00060,00003,1936-12-12,2020-01-30,27304,TRUE,36,38.6,Levittown NY,52390
USGS,01309500,MASSAPEQUA CREEK AT MASSAPEQUA NY,40.68888889,-73.4547222,02030202,qw,00060,NA,1966-05-11,1986-09-02,49,TRUE,36,38.6,Levittown NY,52390
USGS,08053000,"Elm Fk Trinity Rv nr Lewisville, TX",33.0456773,-96.9611173,12030103,dv,00060,00003,1949-03-01,2020-01-30,25538,TRUE,48,1673,Lewisville TX,97496
USGS,06803190,"SALT CREEK AT 14TH STREET, AT LINCOLN, NEBR.",40.8341681,-96.7011272,10200203,qw,00060,NA,1971-07-28,1974-09-24,20,TRUE,31,NA,Lincoln NE,245301
USGS,06803400,"ANTELOPE CREEK AT LINCOLN, NEBR.",40.82389027,-96.6966827,10200203,dv,00060,00003,1958-07-01,1962-09-29,1552,TRUE,31,12.5,Lincoln NE,245301
USGS,06803405,"ANTELOPE CREEK AT COURT STREET, AT LINCOLN, NEBR",40.8288903,-96.6997383,10200203,qw,00060,NA,1963-06-24,1974-09-24,21,TRUE,31,NA,Lincoln NE,245301
USGS,06803493,"OAK CREEK AT 14TH STREET, AT LINCOLN, NEBR.",40.83611255,-96.7011271,10200203,qw,00060,NA,1971-07-28,1974-09-24,20,TRUE,31,NA,Lincoln NE,245301
USGS,06803500,"Salt Creek at 27th Street at Lincoln, Nebr.",40.84666667,-96.6816667,10200203,dv,00060,00003,1949-10-01,2020-01-30,25689,TRUE,31,685,Lincoln NE,245301
USGS,06803500,"Salt Creek at 27th Street at Lincoln, Nebr.",40.84666667,-96.6816667,10200203,qw,00060,NA,1950-05-09,1974-09-12,72,TRUE,31,685,Lincoln NE,245301
USGS,06803503,"DEAD MANS RUN AT HIGHWAY 6, AT LINCOLN, NEBR.",40.84250115,-96.6780708,10200203,qw,00060,NA,1971-07-30,1972-06-06,12,TRUE,31,NA,Lincoln NE,245301
USGS,01393500,Elizabeth River at Elizabeth NJ,40.6683333,-74.2194444,02030104,dv,00060,00003,1921-10-01,1972-12-19,18708,TRUE,34,20.2,Linden NJ,39964
USGS,01393500,Elizabeth River at Elizabeth NJ,40.6683333,-74.2194444,02030104,qw,00060,NA,1923-08-30,1972-09-18,59,TRUE,34,20.2,Linden NJ,39964
USGS,01395000,Rahway River at Rahway NJ,40.61888889,-74.2833333,02030104,dv,00060,00003,1921-10-01,2020-01-30,35916,TRUE,34,40.9,Linden NJ,39964
USGS,01395000,Rahway River at Rahway NJ,40.61888889,-74.2833333,02030104,qw,00060,NA,1923-08-30,1969-11-19,27,TRUE,34,40.9,Linden NJ,39964
USGS,01396000,Robinsons Branch at Rahway NJ,40.6058333,-74.2997222,02030104,dv,00060,00003,1939-10-01,1996-10-14,20834,TRUE,34,21.6,Linden NJ,39964
USGS,01396001,Robinsons Branch at Maple Ave at Rahway NJ,40.6072222,-74.2941667,02030104,dv,00060,00003,1979-10-01,1985-09-29,2191,TRUE,34,21.6,Linden NJ,39964
USGS,06710000,"SOUTH PLATTE RIVER AT LITTLETON, CO.",39.6188766,-105.0191499,10190002,dv,00060,00003,1941-10-01,1986-09-29,16435,TRUE,08,3069,Littleton CO,41063
USGS,11176100,ARROYO LAS POSITAS AB LIVERMORE CA,37.69437417,-121.714674,18050004,dv,00060,00003,1971-12-20,1974-06-30,924,TRUE,06,7.82,Livermore CA,81787
USGS,11176140,ALTAMONT C NR LIVERMORE CA,37.72298447,-121.7291189,18050004,dv,00060,00003,1978-10-01,1980-05-17,595,TRUE,06,13.4,Livermore CA,81787
USGS,11176150,ARROYO LAS POSITAS NR LIVERMORE CA,37.6977075,-121.8052322,18050004,dv,00060,00003,1912-04-01,1930-09-29,5658,TRUE,06,64.6,Livermore CA,81787
