agency_cd,site_no,station_nm,dec_lat_va,dec_long_va,huc_cd,data_type_cd,parm_cd,stat_cd,begin_date,end_date,count_nu,early_enough,late_enough,state_cd,drain_area_va,city,city_pop
USGS,08083420,"Cat Claw Ck at Abilene, TX",32.47540219,-99.7492556,12060102,dv,00060,00003,1970-10-01,2020-01-30,10104,TRUE,TRUE,48,13,Abilene TX,113888
USGS,02352500,"FLINT RIVER AT ALBANY, GA",31.59416667,-84.1441667,03130008,dv,00060,00003,1901-10-01,2020-01-30,40207,TRUE,TRUE,13,5310,Albany GA,75510
USGS,01359528,NORMANS KILL AT ALBANY NY,42.63363889,-73.80427778,02020006,dv,00060,00003,1979-05-15,2020-01-30,3805,TRUE,TRUE,36,168,Albany NY,93576
USGS,14174000,"WILLAMETTE RIVER AT ALBANY, OR",44.6387328,-123.1067616,17090003,dv,00060,00003,1892-11-01,2020-01-30,46384,TRUE,TRUE,41,4840,Albany OR,45535
USGS,08329840,"HAHN ARROYO IN ALBUQUERQUE, NM",35.12587778,-106.5903028,13020203,dv,00060,00003,1978-06-21,2020-01-30,8492,TRUE,TRUE,35,4.23,Albuquerque NM,494962
USGS,01652500,"FOURMILE RUN AT ALEXANDRIA, VA",38.8433333,-77.0858611,02070010,dv,00060,00003,1951-05-04,2020-01-30,16510,TRUE,TRUE,51,12.6,Alexandria VA,127159
USGS,01653000,"CAMERON RUN AT ALEXANDRIA, VA",38.8065021,-77.1097011,02070010,dv,00060,00003,1955-06-01,2020-01-30,21245,TRUE,TRUE,51,33.9,Alexandria VA,127159
USGS,01451500,"Little Lehigh Creek near Allentown, PA",40.5823197,-75.48296088,02040106,dv,00060,00003,1945-10-01,2020-01-30,27150,TRUE,TRUE,42,80.8,Allentown PA,105224
USGS,01452000,"Jordan Creek at Allentown, PA",40.62315267,-75.4824053,02040106,dv,00060,00003,1944-10-01,2020-01-30,27514,TRUE,TRUE,42,75.8,Allentown PA,105224
USGS,11098000,ARROYO SECO NR PASADENA CA,34.22222629,-118.1775727,18070105,dv,00060,00003,1910-12-01,2020-01-30,39434,TRUE,TRUE,06,16,Altadena CA,43280
USGS,02234990,"LITTLE WEKIVA RIVER NEAR ALTAMONTE SPRINGS, FL",28.6872192,-81.3970138,03080101,dv,00060,00003,1972-02-01,2020-01-30,16434,TRUE,TRUE,12,42.4,Altamonte Springs FL,40712
USGS,05470500,"Squaw Creek at Ames, IA",42.02304157,-93.6304962,07080105,dv,00060,00003,1919-05-24,2020-01-29,23024,TRUE,TRUE,19,204,Ames IA,57683
USGS,05471000,"South Skunk River below Squaw Creek near Ames, IA",42.00665328,-93.595495,07080105,dv,00060,00003,1952-10-01,2020-01-29,19950,TRUE,TRUE,19,556,Ames IA,57683
USGS,03348000,"WHITE RIVER AT ANDERSON, IN",40.10527778,-85.67138889,05120201,dv,00060,00003,1925-10-01,2020-01-29,27758,TRUE,TRUE,18,406,Anderson IN,57036
USGS,04174500,"HURON RIVER AT ANN ARBOR, MI",42.28698238,-83.733829600000007,04090005,dv,00060,00003,1914-01-01,2020-01-30,38441,TRUE,TRUE,26,729,Ann Arbor MI,113716
USGS,01654000,"ACCOTINK CREEK NEAR ANNANDALE, VA",38.81289066,-77.2283158,02070010,dv,00060,00003,1947-10-01,2020-01-30,26419,TRUE,TRUE,51,23.9,Annandale VA,57942
USGS,01654500,"LONG BRANCH NEAR ANNANDALE, VA",38.8109462,-77.2349827,02070010,dv,00060,00003,1947-10-01,2020-01-30,5836,TRUE,TRUE,51,3.72,Annandale VA,57942
USGS,05530990,"SALT CREEK AT ROLLING MEADOWS, IL",42.06055556,-88.0166667,07120004,dv,00060,00003,1973-07-12,2020-01-30,17004,TRUE,TRUE,17,30.5,Arlington Heights IL,74763
USGS,05530990,"SALT CREEK AT ROLLING MEADOWS, IL",42.06055556,-88.0166667,07120004,uv,00060,NA,1978-06-30,2020-01-31,15190,TRUE,TRUE,17,30.5,Arlington Heights IL,74763
USGS,01102500,"ABERJONA RIVER AT WINCHESTER, MA",42.4474568,-71.1380816,01090001,dv,00060,00003,1939-04-16,2020-01-30,29508,TRUE,TRUE,25,24.5,Arlington MA,41246
USGS,01652500,"FOURMILE RUN AT ALEXANDRIA, VA",38.8433333,-77.0858611,02070010,dv,00060,00003,1951-05-04,2020-01-30,16510,TRUE,TRUE,51,12.6,Arlington VA,184603
USGS,03451000,"SWANNANOA RIVER AT BILTMORE, NC",35.5683333,-82.5447222,06010105,dv,00060,00003,1920-10-01,2020-01-30,33480,TRUE,TRUE,37,130,Asheville NC,68654
USGS,03451500,"FRENCH BROAD RIVER AT ASHEVILLE, NC",35.60888889,-82.5780556,06010105,dv,00060,00003,1895-10-01,2020-01-30,45412,TRUE,TRUE,37,945,Asheville NC,68654
USGS,01650500,"NORTHWEST BRANCH ANACOSTIA RIVER NR COLESVILLE, MD",39.06566667,-77.0293333,02070010,dv,00060,00003,1923-10-01,2020-01-30,30015,TRUE,TRUE,24,21,Aspen Hill MD,54029
USGS,02217500,"MIDDLE OCONEE RIVER NEAR ATHENS, GA",33.94666667,-83.4227778,03070101,dv,00060,00003,1901-10-01,2020-01-30,31775,TRUE,TRUE,13,398,Athens-Clarke GA,103618
USGS,12112600,"BIG SOOS CREEK ABOVE HATCHERY NEAR AUBURN, WA",47.31232289,-122.165396,17110013,dv,00060,00003,1960-09-01,2020-01-30,21701,TRUE,TRUE,53,66.7,Auburn WA,46108
USGS,12113000,"GREEN RIVER NEAR AUBURN, WA",47.3123228,-122.2040082,17110013,dv,00060,00003,1936-08-01,2020-01-30,30498,TRUE,TRUE,53,399,Auburn WA,46108
USGS,08155500,"Barton Spgs at Austin, TX",30.26354169,-97.7713947,12090205,qw,00060,NA,1969-11-05,2019-01-31,79,TRUE,TRUE,48,NA,Austin TX,683404
USGS,08155500,"Barton Spgs at Austin, TX",30.26354169,-97.7713947,12090205,dv,00060,00003,1978-03-01,2020-01-30,15311,TRUE,TRUE,48,NA,Austin TX,683404
USGS,08155500,"Barton Spgs at Austin, TX",30.26354169,-97.7713947,12090205,dv,00060,31200,1978-03-01,2000-08-09,8198,TRUE,TRUE,48,NA,Austin TX,683404
USGS,11085000,SAN GABRIEL R BL SANTA FE DAM NR BALDWIN PK CA,34.11223019,-117.9695092,18070106,dv,00060,00003,1942-10-01,2020-01-30,25688,TRUE,TRUE,06,236,Baldwin Park CA,81467
USGS,04105500,"KALAMAZOO RIVER NEAR BATTLE CREEK, MI",42.32392989,-85.1974929,04050003,dv,00060,00003,1937-07-27,2020-01-31,30139,TRUE,TRUE,26,824,Battle Creek MI,54179
USGS,01581700,"WINTERS RUN NEAR BENSON, MD",39.51994444,-76.3729722,02060003,dv,00060,00003,1967-08-01,2020-01-30,19176,TRUE,TRUE,24,34.8,Bel Air South MD,50874
USGS,12120000,"MERCER CREEK NEAR BELLEVUE, WA",47.60287716,-122.180956,17110012,dv,00060,00003,1945-07-01,2019-10-29,23588,TRUE,TRUE,53,12,Bellevue WA,111896
USGS,05532500,"DES PLAINES RIVER AT RIVERSIDE, IL",41.82166667,-87.8219444,07120004,dv,00060,00003,1943-10-01,2020-01-30,27881,TRUE,TRUE,17,630,Berwyn IL,50904
USGS,01452500,"Monocacy Creek at Bethlehem, PA",40.6412091,-75.37934709,02040106,dv,00060,00003,1948-10-01,2020-01-30,26054,TRUE,TRUE,42,44.5,Bethlehem PA,74087
USGS,01453000,"Lehigh River at Bethlehem, PA",40.6153761,-75.3787914,02040106,dv,00060,00003,1902-10-01,2020-01-30,41029,TRUE,TRUE,42,1279,Bethlehem PA,74087
USGS,01100600,"SHAWSHEEN RIVER NEAR WILMINGTON, MA",42.5681488,-71.2147792,01070002,dv,00060,00003,1963-11-21,2020-01-30,20525,TRUE,TRUE,25,36.5,Billerica MA,40063
USGS,06342500,"MISSOURI RIVER AT BISMARCK, ND",46.81416667,-100.8213889,10130101,dv,00060,00003,1927-10-01,2020-01-30,33573,TRUE,TRUE,38,186400,Bismarck ND,56927
USGS,06342500,"MISSOURI RIVER AT BISMARCK, ND",46.81416667,-100.8213889,10130101,qw,00060,NA,1969-07-28,2014-12-10,141,TRUE,TRUE,38,186400,Bismarck ND,56927
USGS,01392500,Second River at Belleville NJ,40.78805556,-74.1716667,02030103,dv,00060,00003,1937-05-26,2020-01-31,13188,TRUE,TRUE,34,11.6,Bloomfield NJ,49358
USGS,04166000,"RIVER ROUGE AT BIRMINGHAM, MI",42.5458678,-83.2235418,04090004,dv,00060,00003,1950-06-01,2020-01-30,25446,TRUE,TRUE,26,33.3,Bloomfield Township MI,43032
USGS,05580950,"SUGAR CREEK NEAR BLOOMINGTON, IL",40.47194444,-89.0280556,07130009,dv,00060,00003,1974-10-01,2020-01-30,16558,TRUE,TRUE,17,34.4,Bloomington IL,71804
USGS,02291500,"IMPERIAL RIVER NEAR BONITA SPRINGS, FL",26.33583333,-81.74938889,03090204,dv,00060,00003,1940-06-01,2020-01-30,17276,TRUE,TRUE,12,NA,Bonita Springs FL,43842
USGS,10143500,"CENTERVILLE CREEK ABV DIV NR CENTERVILLE, UT",40.91633389,-111.8629931,16020102,dv,00060,00003,1949-10-01,2012-09-30,16225,TRUE,TRUE,49,3.15,Bountiful UT,41622
USGS,01594440,"PATUXENT RIVER NEAR BOWIE, MD",38.95591667,-76.6936944,02060006,dv,00060,00003,1977-06-27,2020-01-30,15558,TRUE,TRUE,24,348,Bowie MD,56949
USGS,03314500,"BARREN RIVER AT BOWLING GREEN, KY",37.0028201,-86.432768,05110002,dv,00060,00003,1938-06-01,2020-01-30,27120,TRUE,TRUE,21,1849,Bowling Green KY,51999
USGS,11075720,CARBON C BL CARBON CYN DAM CA,33.91334748,-117.8425584,18070106,dv,00060,00003,1961-10-01,2020-01-30,21306,TRUE,TRUE,06,19.5,Brea CA,40349
USGS,11089500,FULLERTON C BL FULLERTON DAM NR BREA CA,33.89584765,-117.8861706,18070106,dv,00060,00003,1941-10-01,2020-01-30,28611,TRUE,TRUE,06,4.94,Brea CA,40349
USGS,01408120,North Branch Metedeconk River near Lakewood NJ,40.09166667,-74.1525,02040301,dv,00060,00003,1972-10-01,2020-01-31,17289,TRUE,TRUE,34,34.9,Brick NJ,82400
USGS,01208873,"ROOSTER RIVER AT FAIRFIELD, CT",41.1798189,-73.21900219,01100006,dv,00060,00003,1977-10-01,2020-01-30,14616,TRUE,TRUE,09,10.6,Bridgeport CT,138901
USGS,01106500,"MATFIELD RIVER AT ELMWOOD, MA",42.01537869,-70.96115378,01090004,dv,00060,00003,1958-07-10,2009-10-14,1848,TRUE,TRUE,25,40.5,Bridgewater MA,50237
USGS,01189000,"PEQUABUCK R AT FORESTVILLE, CT.",41.673154,-72.90065738,01080207,dv,00060,00003,1941-10-01,2020-01-30,26207,TRUE,TRUE,09,45.8,Bristol CT,61166
USGS,05288500,"MISSISSIPPI RIVER AT HWY 610 IN BROOKLYN PARK, MN",45.1266318,-93.2968947,07010206,dv,00060,00003,1931-06-01,2020-01-30,32386,TRUE,TRUE,27,19100,Brooklyn Park MN,67660
USGS,05528500,"BUFFALO CREEK NEAR WHEELING, IL",42.15194444,-87.9577778,07120004,dv,00060,00003,1952-08-12,2020-01-30,24642,TRUE,TRUE,17,19.6,Buffalo Grove IL,43355
USGS,04216000,NIAGARA RIVER AT BUFFALO NY,42.87777778,-78.91638889,04120200,dv,00060,00003,1926-01-01,2019-11-30,34296,TRUE,TRUE,36,263700,Buffalo NY,276762
USGS,01654000,"ACCOTINK CREEK NEAR ANNANDALE, VA",38.81289066,-77.2283158,02070010,dv,00060,00003,1947-10-01,2020-01-30,26419,TRUE,TRUE,51,23.9,Burke VA,58270
USGS,01654500,"LONG BRANCH NEAR ANNANDALE, VA",38.8109462,-77.2349827,02070010,dv,00060,00003,1947-10-01,2020-01-30,5836,TRUE,TRUE,51,3.72,Burke VA,58270
USGS,01467200,Delaware R at Ben Franklin Bridge at Philadelphia,39.95400165,-75.1373987,02040202,qw,00060,NA,1956-10-10,2001-07-18,88,TRUE,TRUE,42,7993,Camden NJ,80393
USGS,03118000,Middle Branch Nimishillen Creek at Canton OH,40.84144709,-81.3537229,05040001,dv,00060,00003,1941-10-01,2020-01-30,28609,TRUE,TRUE,39,43.1,Canton OH,77575
USGS,02286200,"SNAKE CREEK CANAL AT NW67 AVE NR HIALEAH, FL",25.96425918,-80.310884,03090202,dv,00060,00003,1962-04-01,2011-10-15,17701,TRUE,TRUE,12,NA,Carol City FL,63659
USGS,05539900,"WEST BRANCH DU PAGE RIVER NEAR WEST CHICAGO, IL",41.91086169,-88.1789607,07120004,dv,00060,00003,1961-07-27,2020-01-30,21371,TRUE,TRUE,17,28.5,Carol Stream IL,39749
USGS,08055500,"Elm Fk Trinity Rv nr Carrollton, TX",32.965957,-96.94445,12030103,dv,00060,00003,1907-01-01,2020-01-30,41303,TRUE,TRUE,48,2459,Carrollton TX,123154
USGS,10310500,"CLEAR CK NR CARSON CITY, NV",39.11324216,-119.7982365,16050201,dv,00060,00003,1948-03-01,2020-01-30,16661,TRUE,TRUE,32,15.5,Carson City NV,58350
USGS,10311400,"CARSON RV AT DEER RUN RD NR CARSON CITY, NV",39.18137778,-119.6948694,16050201,dv,00060,00003,1979-04-20,2020-01-30,13131,TRUE,TRUE,32,958,Carson City NV,58350
USGS,11180960,CULL C AB CULL C RES NR CASTRO VALLEY CA,37.71770737,-122.0544067,18050004,dv,00060,00003,1978-10-01,2020-01-30,15097,TRUE,TRUE,06,5.79,Castro Valley CA,63908
USGS,11181000,SAN LORENZO C A HAYWARD CA,37.68548644,-122.064407,18050004,dv,00060,00003,1940-04-01,2020-01-30,21698,TRUE,TRUE,06,37.5,Castro Valley CA,63908
USGS,11181008,CASTRO VALLEY C A HAYWARD CA,37.6799311,-122.0805186,18050004,dv,00060,00003,1971-10-01,2020-01-30,17195,TRUE,TRUE,06,5.51,Castro Valley CA,63908
USGS,01589100,"EAST BRANCH HERBERT RUN AT ARBUTUS, MD",39.24,-76.6921944,02060003,dv,00060,00003,1957-08-01,2020-01-30,19541,TRUE,TRUE,24,2.47,Catonsville MD,43406
USGS,05464500,"Cedar River at Cedar Rapids, IA",41.97194549,-91.667123900000007,07080205,dv,00060,00003,1902-10-01,2020-01-30,42854,TRUE,TRUE,19,6510,Cedar Rapids IA,123243
USGS,11290000,TUOLUMNE R A MODESTO CA,37.627153,-120.9843777,18040009,dv,00060,00003,1895-01-01,2020-01-30,29890,TRUE,TRUE,06,1884,Ceres CA,41223
USGS,03337000,"BONEYARD CREEK AT URBANA, IL",40.1111428,-88.2264375,05120109,dv,00060,00003,1948-07-15,2020-01-30,26132,TRUE,TRUE,17,4.46,Champaign IL,76999
USGS,03337000,"BONEYARD CREEK AT URBANA, IL",40.1111428,-88.2264375,05120109,uv,00060,NA,1979-07-25,2020-01-31,14800,TRUE,TRUE,17,4.46,Champaign IL,76999
USGS,03568000,"TENNESSEE RIVER AT CHATTANOOGA, TN",35.08677555,-85.2784299,06020001,dv,00060,00003,1874-04-01,2008-09-29,49125,TRUE,TRUE,47,21400,Chattanooga TN,153617
USGS,01467150,Cooper River at Haddonfield NJ,39.90305556,-75.02138889,02040202,qw,00060,NA,1961-04-25,2013-02-20,20,TRUE,TRUE,34,17,Cherry Hill PA,70489
USGS,01467150,Cooper River at Haddonfield NJ,39.90305556,-75.02138889,02040202,dv,00060,00003,1963-10-01,2020-01-30,20576,TRUE,TRUE,34,17,Cherry Hill PA,70489
USGS,01177000,"CHICOPEE RIVER AT INDIAN ORCHARD, MA",42.16064906,-72.5139756,01080204,dv,00060,00003,1928-08-05,2020-01-30,33416,TRUE,TRUE,25,689,Chicopee MA,55222
USGS,11073360,CHINO C A SCHAEFER AVENUE NR CHINO CA,34.00390144,-117.7270006,18070203,dv,00060,00003,1969-10-01,2020-01-30,18384,TRUE,TRUE,06,48.9,Chino CA,77147
USGS,11073360,CHINO C A SCHAEFER AVENUE NR CHINO CA,34.00390144,-117.7270006,18070203,dv,00060,00003,1969-10-01,2020-01-30,18384,TRUE,TRUE,06,48.9,Chino Hills CA,80817
USGS,02307731,ALLEN CREEK NEAR LARGO FL,27.9419656,-82.7498233,03100206,dv,00060,00003,1947-02-12,2006-07-19,4236,TRUE,TRUE,12,1.7,Clearwater FL,107866
USGS,04208502,Big Creek at Cleveland OH,41.45032916,-81.7215204,04110002,dv,00060,00003,1972-10-01,2020-01-30,7627,TRUE,TRUE,39,35.3,Cleveland OH,443949
USGS,04164000,"CLINTON RIVER NEAR FRASER, MI",42.57781225,-82.951589,04090003,dv,00060,00003,1947-06-01,2020-01-30,26542,TRUE,TRUE,26,444,Clinton MI,100517
USGS,04164000,"CLINTON RIVER NEAR FRASER, MI",42.57781225,-82.951589,04090003,qw,00060,NA,1966-03-30,2006-04-26,41,TRUE,TRUE,26,444,Clinton MI,100517
USGS,04164500,"NORTH BRANCH CLINTON RIVER NEAR MT. CLEMENS, MI",42.62920008,-82.8888104,04090003,dv,00060,00003,1947-06-01,2020-01-30,26542,TRUE,TRUE,26,199,Clinton MI,100517
USGS,04165500,"CLINTON RIVER AT MORAVIAN DRIVE AT MT. CLEMENS, MI",42.5958674,-82.90881,04090003,dv,00060,00003,1934-05-01,2020-01-30,31320,TRUE,TRUE,26,734,Clinton MI,100517
USGS,04165500,"CLINTON RIVER AT MORAVIAN DRIVE AT MT. CLEMENS, MI",42.5958674,-82.90881,04090003,qw,00060,NA,1967-08-28,2018-01-10,32,TRUE,TRUE,26,734,Clinton MI,100517
USGS,11059300,SANTA ANA R A E ST NR SAN BERNARDINO CA,34.0650131,-117.3003208,18070203,dv,00060,00003,1939-03-01,2020-01-30,24818,TRUE,TRUE,06,541,Colton CA,53281
USGS,11060400,WARM C NR SAN BERNARDINO CA,34.07834596,-117.3003209,18070203,dv,00060,00003,1964-03-01,2020-01-30,19693,TRUE,TRUE,06,11,Colton CA,53281
USGS,11065000,LYTLE C A COLTON CA,34.07890146,-117.3055989,18070203,dv,00060,00003,1957-10-01,2020-01-30,22496,TRUE,TRUE,06,186,Colton CA,53281
USGS,01593500,"LITTLE PATUXENT RIVER AT GUILFORD, MD",39.16775,-76.85125,02060006,dv,00060,00003,1932-04-01,2020-01-30,32081,TRUE,TRUE,24,38,Columbia MD,97772
USGS,06910230,"Hinkson Creek at Columbia, MO",38.92775,-92.3399444,10300102,dv,00060,00003,1966-10-01,2020-01-30,12028,TRUE,TRUE,29,69.8,Columbia MO,92756
USGS,03363900,"FLATROCK RIVER AT COLUMBUS, IN",39.2350514,-85.9266597,05120205,dv,00060,00003,1967-10-01,2020-01-30,19113,TRUE,TRUE,18,534,Columbus IN,39453
USGS,03364000,"EAST FORK WHITE RIVER AT COLUMBUS, IN",39.2000516,-85.9255464,05120205,dv,00060,00003,1948-04-01,2020-01-30,26235,TRUE,TRUE,18,1707,Columbus IN,39453
USGS,08055000,"Denton Ck nr Grapevine, TX",32.9870677,-97.0127857,12030104,dv,00060,00003,1947-10-01,2020-01-30,22028,TRUE,TRUE,48,705,Coppell TX,40487
USGS,08055500,"Elm Fk Trinity Rv nr Carrollton, TX",32.965957,-96.94445,12030103,dv,00060,00003,1907-01-01,2020-01-30,41303,TRUE,TRUE,48,2459,Coppell TX,40487
USGS,02286200,"SNAKE CREEK CANAL AT NW67 AVE NR HIALEAH, FL",25.96425918,-80.310884,03090202,dv,00060,00003,1962-04-01,2011-10-15,17701,TRUE,TRUE,12,NA,Country Club FL,58321
USGS,01116500,"PAWTUXET RIVER AT CRANSTON, RI",41.75093399,-71.4450575,01090004,dv,00060,00003,1939-12-06,2020-01-30,29276,TRUE,TRUE,44,200,Cranston RI,83595
USGS,04206000,Cuyahoga River at Old Portage OH,41.1356112,-81.5470622,04110002,dv,00060,00003,1921-10-01,2020-01-30,34761,TRUE,TRUE,39,404,Cuyahoga Falls OH,52223
USGS,08056500,"Turtle Ck at Dallas, TX",32.80735055,-96.8025013,12030105,dv,00060,00003,1951-10-01,2020-01-30,16853,TRUE,TRUE,48,7.98,Dallas TX,1216543
USGS,08057300,"White Rk Ck at White Rk Lk, Dallas, TX",32.80873904,-96.725832,12030105,dv,00060,00003,1962-10-01,2020-01-30,7788,TRUE,TRUE,48,100,Dallas TX,1216543
USGS,11182500,SAN RAMON C A SAN RAMON CA,37.772983,-121.9946825,18050001,dv,00060,00003,1952-10-01,2020-01-30,24593,TRUE,TRUE,06,5.89,Danville CA,43110
USGS,03270500,Great Miami River at Dayton OH,39.7653365,-84.1974405,05080002,dv,00060,00003,1913-04-01,2020-01-30,39020,TRUE,TRUE,39,2511,Dayton OH,157607
USGS,03271000,Wolf Creek at Dayton OH,39.76672525,-84.2366086,05080002,dv,00060,00003,1938-10-01,2020-01-30,14364,TRUE,TRUE,39,68.7,Dayton OH,157607
USGS,05439000,"SOUTH BRANCH KISHWAUKEE RIVER AT DEKALB, IL",41.9311111,-88.7597222,07090006,dv,00060,00003,1925-07-17,2020-01-30,17761,TRUE,TRUE,17,77.7,DeKalb IL,44223
USGS,04167000,"MIDDLE RIVER ROUGE NEAR GARDEN CITY, MI",42.34809259,-83.31159728,04090004,dv,00060,00003,1930-10-01,2020-01-30,25479,TRUE,TRUE,26,99.9,Dearborn Heights MI,55964
USGS,04168000,"LOWER RIVER ROUGE AT INKSTER, MI",42.30059329,-83.3002078,04090004,dv,00060,00003,1947-06-01,2016-09-29,25324,TRUE,TRUE,26,83.2,Dearborn Heights MI,55964
USGS,05482000,"Des Moines River at 2nd Avenue at Des Moines, IA",41.61248906,-93.6210513,07100004,dv,00060,00003,1915-03-01,2020-01-30,25536,TRUE,TRUE,19,6245,Des Moines IA,192050
USGS,05485500,"Des Moines River blw Raccoon Riv at Des Moines, IA",41.57776716,-93.6054951,07100008,dv,00060,00003,1940-04-01,2020-01-30,29159,TRUE,TRUE,19,9879,Des Moines IA,192050
USGS,05530000,"WELLER CREEK AT DES PLAINES, IL",42.04947275,-87.918123,07120004,dv,00060,00003,1950-10-01,2020-01-30,25324,TRUE,TRUE,17,13.2,Des Plaines IL,53601
USGS,01483700,"ST JONES RIVER AT DOVER, DE",39.1637222,-75.5190833,02040207,dv,00060,00003,1958-01-01,2020-01-30,22673,TRUE,TRUE,10,31.9,Dover DE,34288
USGS,11174600,ALAMO CN NR PLEASANTON CA,37.69444444,-121.9194444,18050004,dv,00060,00003,1979-08-30,2020-01-30,3411,TRUE,TRUE,06,39.5,Dublin CA,40791
USGS,11176200,ARROYO MOCHO NR PLEASANTON CA,37.6904857,-121.8732899,18050004,dv,00060,00003,1962-09-01,2019-05-31,9190,TRUE,TRUE,06,142,Dublin CA,40791
USGS,01192500,"HOCKANUM RIVER NEAR EAST HARTFORD, CT",41.7831548,-72.5873114,01080205,dv,00060,00003,1919-10-01,2020-01-30,32305,TRUE,TRUE,09,73.4,East Hartford CT,50209
USGS,01192500,"HOCKANUM RIVER NEAR EAST HARTFORD, CT",41.7831548,-72.5873114,01080205,qw,00060,NA,1954-04-21,2016-06-13,47,TRUE,TRUE,09,73.4,East Hartford CT,50209
USGS,02304500,HILLSBOROUGH RIVER NEAR TAMPA FL,28.02390784,-82.4275939,03100205,dv,00060,00003,1938-10-01,2020-01-30,29641,TRUE,TRUE,12,624,East Lake FL,47720
USGS,04112500,"RED CEDAR RIVER AT EAST LANSING, MI",42.7272571,-84.4780317,04050004,dv,00060,00003,1902-08-31,2020-01-31,32967,TRUE,TRUE,26,355,East Lansing MI,48618
USGS,01392500,Second River at Belleville NJ,40.78805556,-74.1716667,02030103,dv,00060,00003,1937-05-26,2020-01-31,13188,TRUE,TRUE,34,11.6,East Orange NJ,68064
USGS,01114000,"MOSHASSUCK RIVER AT PROVIDENCE, RI",41.833989,-71.41061208,01090004,dv,00060,00003,1963-06-01,2020-01-30,20698,TRUE,TRUE,44,23.1,East Providence RI,50750
USGS,02306000,SULPHUR SPRINGS AT SULPHUR SPRINGS FL,28.02113004,-82.451761,03100205,dv,00060,00003,1959-07-01,2020-01-30,22129,TRUE,TRUE,12,NA,Egypt Lake-Leto FL,49538
USGS,02306000,SULPHUR SPRINGS AT SULPHUR SPRINGS FL,28.02113004,-82.451761,03100205,dv,00060,00003,1974-04-25,2011-09-29,6164,TRUE,TRUE,12,NA,Egypt Lake-Leto FL,49538
USGS,02306500,SWEETWATER CREEK NEAR SULPHUR SPRINGS FL,28.04307328,-82.5117623,03100206,dv,00060,00003,1951-10-01,2020-01-30,24959,TRUE,TRUE,12,7.43,Egypt Lake-Leto FL,49538
USGS,11087020,SAN GABRIEL R AB WHITTIER NARROWS DAM CA,34.03417767,-118.0381225,18070106,dv,00060,00003,1955-10-01,2020-01-30,21306,TRUE,TRUE,06,442,El Monte CA,127195
USGS,11101250,RIO HONDO AB WHITTIER NARROWS DAM CA,34.05834368,-118.0717348,18070105,dv,00060,00003,1956-03-01,2020-01-30,23346,TRUE,TRUE,06,91.2,El Monte CA,127195
USGS,05550500,"POPLAR CREEK AT ELGIN, IL",42.0261111,-88.2555556,07120006,dv,00060,00003,1951-08-14,2020-01-30,25006,TRUE,TRUE,17,35.2,Elgin IL,99411
USGS,05550500,"POPLAR CREEK AT ELGIN, IL",42.0261111,-88.2555556,07120006,uv,00060,NA,1955-05-05,2020-01-31,23647,TRUE,TRUE,17,35.2,Elgin IL,99411
USGS,01393450,Elizabeth River at Ursino Lake at Elizabeth NJ,40.675,-74.2219444,02030104,dv,00060,00003,1921-10-01,2020-01-31,35917,TRUE,TRUE,34,16.9,Elizabeth NJ,124552
USGS,04101000,"ST. JOSEPH RIVER AT ELKHART, IN",41.6917158,-85.9750004,04050001,dv,00060,00003,1947-10-01,2020-01-29,26419,TRUE,TRUE,18,3370,Elkhart IN,51198
USGS,04200000,East Branch Black River at Elyria OH,41.34754779,-82.0943144,04110001,dv,00060,00003,1922-08-01,2002-06-30,5302,TRUE,TRUE,39,217,Elyria OH,55811
USGS,04200500,Black River at Elyria OH,41.38032368,-82.10459279,04110001,dv,00060,00003,1944-10-01,2020-01-30,27515,TRUE,TRUE,39,396,Elyria OH,55811
USGS,04200500,Black River at Elyria OH,41.38032368,-82.10459279,04110001,qw,00060,NA,1962-10-14,2014-11-10,374,TRUE,TRUE,39,396,Elyria OH,55811
USGS,04208690,Euclid Creek near Euclid OH,41.5744942,-81.5473444,04110003,dv,00060,00003,1977-05-01,2003-02-16,2625,TRUE,TRUE,39,22.6,Euclid OH,49602
USGS,01208925,"MILL RIVER NEAR FAIRFIELD, CT",41.165475,-73.2700083,01100006,dv,00060,00003,1972-10-01,2017-11-06,16473,TRUE,TRUE,09,28.6,Fairfield CT,59352
USGS,01208950,"SASCO BROOK NEAR SOUTHPORT, CT",41.15287436,-73.3059495,01100006,dv,00060,00003,1964-10-01,2020-01-30,20206,TRUE,TRUE,09,7.38,Fairfield CT,59352
USGS,05054000,"RED RIVER OF THE NORTH AT FARGO, ND",46.861075,-96.7836924,09020104,dv,00060,00003,1901-06-01,2020-01-30,43343,TRUE,TRUE,38,6800,Fargo ND,92396
USGS,05054000,"RED RIVER OF THE NORTH AT FARGO, ND",46.861075,-96.7836924,09020104,qw,00060,NA,1949-05-16,2017-01-18,532,TRUE,TRUE,38,6800,Fargo ND,92396
USGS,04166300,"UPPER RIVER ROUGE AT FARMINGTON, MI",42.46447955,-83.369655,04090004,dv,00060,00003,1958-04-01,2020-01-30,22585,TRUE,TRUE,26,17.5,Farmington Hills MI,79530
USGS,09364500,"ANIMAS RIVER AT FARMINGTON, NM",36.7225,-108.20175,14080104,dv,00060,00003,1913-10-01,2020-01-30,35183,TRUE,TRUE,35,1360,Farmington NM,44278
USGS,09365000,"SAN JUAN RIVER AT FARMINGTON, NM",36.72301667,-108.2255889,14080105,dv,00060,00003,1930-10-01,2020-01-30,32629,TRUE,TRUE,35,7240,Farmington NM,44278
USGS,09365000,"SAN JUAN RIVER AT FARMINGTON, NM",36.72301667,-108.2255889,14080105,qw,00060,NA,1962-05-01,2012-05-29,780,TRUE,TRUE,35,7240,Farmington NM,44278
USGS,04189000,Blanchard River near Findlay OH,41.05588646,-83.6879889,04100008,dv,00060,00003,1923-10-01,2020-01-30,33450,TRUE,TRUE,39,346,Findlay OH,40571
USGS,01094400,"NORTH NASHUA RIVER AT FITCHBURG, MA",42.57620079,-71.7881285,01070004,dv,00060,00003,1972-10-01,2020-01-30,17288,TRUE,TRUE,25,64.2,Fitchburg MA,40565
USGS,04148295,"SWARTZ CREEK AT CLAUDE AVENUE AT FLINT, MI",42.9858609,-83.7388461,04080204,dv,00060,00003,1970-01-01,2020-01-30,7061,TRUE,TRUE,26,114,Flint MI,115691
USGS,06752260,"CACHE LA POUDRE RIVER AT FORT COLLINS, CO",40.5880833,-105.0692222,10190007,dv,00060,00003,1975-04-08,2020-01-30,16369,TRUE,TRUE,08,1128,Fort Collins CO,131505
USGS,06752280,"CACHE LA POUDRE RIV AB BOXELDER CRK NR TIMNATH, CO",40.5519269,-105.011365,10190007,dv,00060,00003,1979-10-01,2020-01-30,14732,TRUE,TRUE,08,1244,Fort Collins CO,131505
USGS,02282700,"MIDDLE RIVER CANAL AT S-36 NR FT LAUDERDALE, FL",26.17313998,-80.17949079,03090202,dv,00060,00003,1961-10-01,2009-09-29,17111,TRUE,TRUE,12,NA,Fort Lauderdale FL,173597
USGS,08047500,"Clear Fk Trinity Rv at Ft Worth, TX",32.732353,-97.3589063,12030102,dv,00060,00003,1924-03-01,2020-01-30,35034,TRUE,TRUE,48,518,Fort Worth TX,633849
USGS,08048000,"W Fk Trinity Rv at Ft Worth, TX",32.76096337,-97.3325167,12030102,dv,00060,00003,1920-10-01,2020-01-30,36281,TRUE,TRUE,48,2615,Fort Worth TX,633849
USGS,02289500,"TAMIAMI CANAL NEAR CORAL GABLES, FL",25.76232213,-80.32810739,03090202,dv,00060,00003,1940-02-01,2020-01-30,22122,TRUE,TRUE,12,NA,Fountainbleau FL,67124
USGS,01098500,"COCHITUATE BK BL LAKE COCHITUATE AT FRAMINGHAM, MA",42.31514167,-71.3838083,01070005,dv,00060,00003,1977-10-01,2020-01-30,4055,TRUE,TRUE,25,17.5,Framingham MA,65103
USGS,01098530,"SUDBURY RIVER AT SAXONVILLE, MA",42.3253732,-71.3975605,01070005,dv,00060,00003,1979-11-01,2020-01-30,14701,TRUE,TRUE,25,106,Framingham MA,65103
USGS,03287500,"KENTUCKY RIVER AT LOCK 4 AT FRANKFORT, KY",38.2017388,-84.8816171,05100205,dv,00060,00003,1925-10-01,2020-01-30,33541,TRUE,TRUE,21,5411,Frankfort KY,27210
USGS,03432350,"HARPETH RIVER AT FRANKLIN, TN",35.9208165,-86.8654982,05130204,dv,00060,00003,1974-10-01,2020-01-30,16558,TRUE,TRUE,47,192,Franklin TN,51478
USGS,01643000,"MONOCACY RIVER AT JUG BRIDGE NEAR FREDERICK, MD",39.4028333,-77.3660833,02070009,dv,00060,00003,1929-10-01,2020-01-30,32994,TRUE,TRUE,24,817,Frederick MD,58271
USGS,01643000,"MONOCACY RIVER AT JUG BRIDGE NEAR FREDERICK, MD",39.4028333,-77.3660833,02070009,uv,00060,NA,1972-06-09,2020-01-31,17402,TRUE,TRUE,24,817,Frederick MD,58271
USGS,01310500,EAST MEADOW BROOK AT FREEPORT NY,40.66555556,-73.5697222,02030202,dv,00060,00003,1937-01-01,2020-01-30,27341,TRUE,TRUE,36,28.7,Freeport NY,43377
USGS,11088500,BREA C BL BREA DAM NR FULLERTON CA,33.88779206,-117.9264496,18070106,dv,00060,00003,1942-01-01,2020-01-30,28518,TRUE,TRUE,06,21.6,Fullerton CA,137126
USGS,11089500,FULLERTON C BL FULLERTON DAM NR BREA CA,33.89584765,-117.8861706,18070106,dv,00060,00003,1941-10-01,2020-01-30,28611,TRUE,TRUE,06,4.94,Fullerton CA,137126
USGS,08061540,"Rowlett Ck nr Sachse, TX",32.95984447,-96.6144378,12030106,dv,00060,00003,1968-03-01,2020-01-30,18963,TRUE,TRUE,48,120,Garland TX,217609
USGS,08104700,"N Fk San Gabriel Rv nr Georgetown, TX",30.6618592,-97.7113993,12070205,dv,00060,00003,1968-06-19,2020-01-29,18852,TRUE,TRUE,48,248,Georgetown TX,41398
USGS,08104900,"S Fk San Gabriel Rv at Georgetown, TX",30.6257499,-97.6911204,12070205,dv,00060,00003,1967-12-01,2020-01-30,19054,TRUE,TRUE,48,133,Georgetown TX,41398
USGS,08105100,"Berry Ck nr Georgetown, TX",30.69130304,-97.6561202,12070205,dv,00060,00003,1967-07-20,2003-09-29,13221,TRUE,TRUE,48,83.1,Georgetown TX,41398
USGS,01589500,"SAWMILL CREEK AT GLEN BURNIE, MD",39.17,-76.6306111,02060003,dv,00060,00003,1944-06-01,2020-01-30,16325,TRUE,TRUE,24,4.97,Glen Burnie MD,40546
USGS,09514000,"BUCKEYE CANAL NEAR AVONDALE, ARIZ.",33.3939316,-112.3740469,15070101,dv,00060,00003,1953-05-01,2001-03-20,8358,TRUE,TRUE,04,NA,Goodyear AZ,49748
USGS,05082500,"RED RIVER OF THE NORTH AT GRAND FORKS, ND",47.9269234,-97.0292435,09020301,dv,00060,00003,1882-04-01,2020-01-30,50342,TRUE,TRUE,38,30100,Grand Forks ND,48195
USGS,05082500,"RED RIVER OF THE NORTH AT GRAND FORKS, ND",47.9269234,-97.0292435,09020301,qw,00060,NA,1949-06-22,2017-04-19,506,TRUE,TRUE,38,30100,Grand Forks ND,48195
USGS,04119000,"GRAND RIVER AT GRAND RAPIDS, MI",42.963082,-85.6772533,04050006,dv,00060,00003,1901-03-01,2020-01-31,34397,TRUE,TRUE,26,4900,Grand Rapids MI,193006
USGS,02306500,SWEETWATER CREEK NEAR SULPHUR SPRINGS FL,28.04307328,-82.5117623,03100206,dv,00060,00003,1951-10-01,2020-01-30,24959,TRUE,TRUE,12,7.43,Greater Carrollwood FL,42586
USGS,02164000,"REEDY RIVER NEAR GREENVILLE, SC",34.8001183,-82.3651213,03050109,dv,00060,00003,1941-11-21,2020-01-30,22835,TRUE,TRUE,45,48.6,Greenville SC,55421
USGS,01209901,"RIPPOWAM RIVER AT STAMFORD, CT.",41.0661111,-73.5492722,01100006,dv,00060,00003,1977-09-17,2020-01-30,8526,TRUE,TRUE,09,34,Greenwich CT,64100
USGS,01391500,Saddle River at Lodi NJ,40.89027778,-74.0805556,02030103,dv,00060,00003,1923-10-01,2020-01-30,35186,TRUE,TRUE,34,54.6,Hackensack NJ,43923
USGS,08048800,"Big Fossil Ck at Haltom City, TX",32.80735146,-97.2486256,12030102,dv,00060,00003,1959-01-01,2020-01-30,7210,TRUE,TRUE,48,52.8,Haltom City TX,42053
USGS,03274000,Great Miami River at Hamilton OH,39.3911674,-84.572169,05080002,dv,00060,00003,1927-04-01,2020-01-30,33908,TRUE,TRUE,39,3630,Hamilton OH,61527
USGS,01570500,"Susquehanna River at Harrisburg, PA",40.25481164,-76.8860846,02050305,dv,00060,00003,1890-10-01,2020-01-30,47238,TRUE,TRUE,42,24100,Harrisburg PA,47576
USGS,01570500,"Susquehanna River at Harrisburg, PA",40.25481164,-76.8860846,02050305,uv,00060,NA,1972-06-21,2020-01-31,17390,TRUE,TRUE,42,24100,Harrisburg PA,47576
USGS,01191000,"NORTH BRANCH PARK RIVER AT HARTFORD, CT",41.78443889,-72.7080556,01080205,dv,00060,00003,1936-11-01,2020-01-30,20354,TRUE,TRUE,09,26.8,Hartford CT,123836
USGS,02473000,"LEAF RIVER AT HATTIESBURG, MS",31.34305556,-89.2802778,03170005,dv,00060,00003,1938-09-15,2020-01-30,29723,TRUE,TRUE,28,1748,Hattiesburg MS,48728
USGS,06063000,Tenmile Creek near Helena MT,46.60500556,-112.0882639,10030101,dv,00060,00003,1908-08-01,2020-01-30,20198,TRUE,TRUE,30,98.7,Helena MT,27383
USGS,01310500,EAST MEADOW BROOK AT FREEPORT NY,40.66555556,-73.5697222,02030202,dv,00060,00003,1937-01-01,2020-01-30,27341,TRUE,TRUE,36,28.7,Hempstead NY,52769
USGS,03426310,"CUMBERLAND RIVER AT OLD HICKORY DAM (TW), TN",36.29711845,-86.6586324,05130202,dv,00060,00003,1931-10-01,2007-09-29,25931,TRUE,TRUE,47,11673,Hendersonville TN,45358
USGS,11055350,PLUNGE C UP DIV NR EAST HIGHLANDS CA,34.13973269,-117.1494826,18070203,dv,00060,00003,1965-10-01,2012-11-14,14069,TRUE,TRUE,06,NA,Highland CA,52692
USGS,11055400,PLUNGE C MID DIV NR EAST HIGHLANDS CA,34.1233444,-117.140593,18070203,dv,00060,00003,1974-10-01,2012-11-14,13558,TRUE,TRUE,06,NA,Highland CA,52692
USGS,11055500,PLUNGE C NR EAST HIGHLANDS CA,34.11834458,-117.141704,18070203,dv,00060,00003,1919-02-01,2020-01-30,36889,TRUE,TRUE,06,16.9,Highland CA,52692
USGS,11055501,PLUNGE C NR EAST HIGHLANDS AND CANALS CA,34.11834458,-117.141704,18070203,dv,00060,00003,1951-04-01,2012-09-29,22463,TRUE,TRUE,06,16.9,Highland CA,52692
USGS,11055700,CITY C WATER CO CN NR HIGHLAND CA,34.14417698,-117.1892063,18070203,dv,00060,00003,1927-10-01,2020-01-05,21348,TRUE,TRUE,06,NA,Highland CA,52692
USGS,11055800,CITY C NR HIGHLAND CA,34.1438992,-117.1886507,18070203,dv,00060,00003,1919-10-01,2020-01-30,36647,TRUE,TRUE,06,19.6,Highland CA,52692
USGS,11055801,CITY C NR HIGHLAND CA.+ CANALS CA,34.1438992,-117.1886507,18070203,dv,00060,00003,1924-05-27,2020-01-05,34922,TRUE,TRUE,06,19.6,Highland CA,52692
USGS,02286100,"SOUTH NEW RIVER CANAL AT S-13 NR DAVIE, FL",26.0661996,-80.2086586,03090202,dv,00060,00003,1957-03-01,2004-09-29,17010,TRUE,TRUE,12,NA,Hollywood FL,145877
USGS,16238500,"Waihi Stream at Honolulu, Oahu, HI",21.3283611,-157.800861,20060000,dv,00060,00003,1913-06-01,2020-01-30,27086,TRUE,TRUE,15,1.12,Honolulu HI,386345
USGS,16240500,"Waiakeakua Str at Honolulu, Oahu, HI",21.32822222,-157.799611,20060000,dv,00060,00003,1913-06-01,2020-01-30,37256,TRUE,TRUE,15,1.05,Honolulu HI,386345
USGS,16244000,"Pukele Stream near Honolulu, Oahu, HI",21.30666667,-157.7883333,20060000,dv,00060,00003,1926-07-01,2020-01-30,25292,TRUE,TRUE,15,1.15,Honolulu HI,386345
USGS,16246000,"Waiomao Stream near Honolulu, Oahu, HI",21.30666667,-157.7805556,20060000,dv,00060,00003,1911-05-01,2014-10-16,18067,TRUE,TRUE,15,1.05,Honolulu HI,386345
USGS,16250000,"Maunawili Ditch nr Waimanalo, Oahu, HI",21.34267778,-157.750311,20060000,dv,00060,00003,1954-04-01,2002-10-02,8585,TRUE,TRUE,15,NA,Honolulu HI,386345
USGS,16254000,"Makawao Str nr Kailua, Oahu, HI",21.3595,-157.7621667,20060000,dv,00060,00003,1912-12-01,2020-01-30,23133,TRUE,TRUE,15,2.03,Honolulu HI,386345
USGS,02423500,CAHABA RIVER NEAR ACTON AL,33.36344373,-86.8130446,03150202,dv,00060,00003,1938-10-01,2020-01-30,18870,TRUE,TRUE,01,230,Hoover AL,67576
USGS,08074000,"Buffalo Bayou at Houston, TX",29.76022829,-95.4085505,12040104,dv,00060,00003,1936-06-01,2019-11-10,16030,TRUE,TRUE,48,336,Houston TX,2043005
USGS,08074500,"Whiteoak Bayou at Houston, TX",29.77522777,-95.3971612,12040104,dv,00060,00003,1936-05-25,2020-01-30,30545,TRUE,TRUE,48,95.1,Houston TX,2043005
USGS,06894000,"Little Blue River near Lake City, MO",39.1005609,-94.3005038,10300101,dv,00060,00003,1948-04-01,2020-01-30,26237,TRUE,TRUE,29,184,Independence MO,110124
USGS,10259300,WHITEWATER R A INDIO CA,33.7372434,-116.236118,18100201,dv,00060,00003,1966-03-01,2020-01-30,19693,TRUE,TRUE,06,1073,Indio CA,69736
USGS,05454300,"Clear Creek near Coralville, IA",41.67668186,-91.5987812,07080209,dv,00060,00003,1952-10-01,2020-01-30,24593,TRUE,TRUE,19,98.1,Iowa City IA,64490
USGS,05454500,"Iowa River at Iowa City, IA",41.6566832,-91.5410017,07080209,dv,00060,00003,1903-06-01,2020-01-30,42612,TRUE,TRUE,19,3271,Iowa City IA,64490
USGS,04232000,GENESEE RIVER AT ROCHESTER NY,43.1806176,-77.6275019,04130003,dv,00060,00003,1904-04-01,2005-09-29,36474,TRUE,TRUE,36,2482,Irondequoit NY,51825
USGS,02486000,"PEARL RIVER AT JACKSON, MS",32.28138889,-90.1788889,03180002,dv,00060,00003,1901-10-01,2020-01-30,36647,TRUE,TRUE,28,3171,Jackson MS,175085
USGS,02246500,"ST. JOHNS RIVER AT JACKSONVILLE, FL",30.3224616,-81.6653735,03080103,dv,00060,00003,1971-10-01,2020-01-30,11414,TRUE,TRUE,12,8850,Jacksonville FL,809874
USGS,05539000,"HICKORY CREEK AT JOLIET, IL",41.515031,-88.0733913,07120004,dv,00060,00003,1944-10-01,2020-01-30,27515,TRUE,TRUE,17,107.5,Joliet IL,141246
USGS,05539000,"HICKORY CREEK AT JOLIET, IL",41.515031,-88.0733913,07120004,uv,00060,NA,1950-10-01,2020-01-31,25324,TRUE,TRUE,17,107.5,Joliet IL,141246
USGS,15050000,GOLD C AT JUNEAU AK,58.30661738,-134.403159,19010301,dv,00060,00003,1916-08-01,2006-09-29,17682,TRUE,TRUE,02,9.7,Juneau AK,31187
USGS,15108800,LAWSON C AT DOUGLAS AK,58.28439416,-134.4128813,19010301,dv,00060,00003,1966-10-01,2013-09-29,2432,TRUE,TRUE,02,3.2,Juneau AK,31187
USGS,04106300,"PORTAGE CREEK NEAR KALAMAZOO, MI",42.2461111,-85.575,04050003,dv,00060,00003,1964-10-01,2008-12-31,16163,TRUE,TRUE,26,22.4,Kalamazoo MI,73504
USGS,04106320,"WEST FORK PORTAGE CREEK NEAR OSHTEMO, MI",42.23531839,-85.6483389,04050003,dv,00060,00003,1972-05-01,2020-01-31,13670,TRUE,TRUE,26,13,Kalamazoo MI,73504
USGS,04106400,"WEST FORK PORTAGE CREEK AT KALAMAZOO, MI",42.2444854,-85.6144495,04050003,dv,00060,00003,1959-09-10,2020-01-31,22059,TRUE,TRUE,26,18.7,Kalamazoo MI,73504
USGS,04106500,"PORTAGE CREEK AT KALAMAZOO, MI",42.2742075,-85.5763942,04050003,dv,00060,00003,1947-10-01,2020-01-31,8828,TRUE,TRUE,26,46.8,Kalamazoo MI,73504
USGS,06893000,"Missouri River at Kansas City, MO",39.1117222,-94.5881389,10300101,dv,00060,00003,1928-10-01,2020-01-30,33359,TRUE,TRUE,29,484100,Kansas City MO,441833
USGS,12125200,"SAMMAMISH RIVER NEAR WOODINVILLE, WA",47.70343228,-122.1437349,17110012,dv,00060,00003,1965-02-01,2006-06-30,15125,TRUE,TRUE,53,159,Kirkland WA,45913
USGS,02263800,"SHINGLE CREEK AT AIRPORT NEAR KISSIMMEE, FL",28.3041775,-81.450905,03090101,dv,00060,00003,1958-10-01,2020-01-30,22402,TRUE,TRUE,12,89.2,Kissimmee FL,67085
USGS,02264495,"SHINGLE CREEK AT CAMPBELL, FL",28.26723444,-81.4478495,03090101,dv,00060,00003,1968-10-01,2020-01-30,18744,TRUE,TRUE,12,180,Kissimmee FL,67085
USGS,03333600,"KOKOMO CREEK NEAR KOKOMO, IN",40.44114916,-86.0888792,05120107,dv,00060,00003,1959-08-01,2012-01-10,19156,TRUE,TRUE,18,24.7,Kokomo IN,46130
USGS,03333700,"WILDCAT CREEK AT KOKOMO, IN",40.47088889,-86.1529167,05120107,dv,00060,00003,1955-10-01,2020-01-30,23498,TRUE,TRUE,18,242,Kokomo IN,46130
USGS,03335000,"WILDCAT CREEK NEAR LAFAYETTE, IN",40.44059108,-86.8291752,05120107,dv,00060,00003,1954-06-01,2020-01-30,23925,TRUE,TRUE,18,794,Lafayette IN,62589
USGS,03335500,"WABASH RIVER AT LAFAYETTE, IN",40.42194444,-86.8969444,05120108,dv,00060,00003,1923-10-01,2020-01-30,35186,TRUE,TRUE,18,7267,Lafayette IN,62589
USGS,11047300,ARROYO TRABUCO A SAN JUAN CAPISTRANO CA,33.49835999,-117.6658843,18070301,dv,00060,00003,1972-10-01,2020-01-30,12902,TRUE,TRUE,06,54.1,Laguna Niguel CA,67009
USGS,11070500,SAN JACINTO R NR ELSINORE CA,33.66418858,-117.293927,18070202,dv,00060,00003,1916-01-01,2020-01-30,38016,TRUE,TRUE,06,723,Lake Elsinore CA,43336
USGS,02304500,HILLSBOROUGH RIVER NEAR TAMPA FL,28.02390784,-82.4275939,03100205,dv,00060,00003,1938-10-01,2020-01-30,29641,TRUE,TRUE,12,624,Lake Magdalene FL,40413
USGS,02306000,SULPHUR SPRINGS AT SULPHUR SPRINGS FL,28.02113004,-82.451761,03100205,dv,00060,00003,1959-07-01,2020-01-30,22129,TRUE,TRUE,12,NA,Lake Magdalene FL,40413
USGS,02306000,SULPHUR SPRINGS AT SULPHUR SPRINGS FL,28.02113004,-82.451761,03100205,dv,00060,00003,1974-04-25,2011-09-29,6164,TRUE,TRUE,12,NA,Lake Magdalene FL,40413
USGS,02306500,SWEETWATER CREEK NEAR SULPHUR SPRINGS FL,28.04307328,-82.5117623,03100206,dv,00060,00003,1951-10-01,2020-01-30,24959,TRUE,TRUE,12,7.43,Lake Magdalene FL,40413
USGS,01408120,North Branch Metedeconk River near Lakewood NJ,40.09166667,-74.1525,02040301,dv,00060,00003,1972-10-01,2020-01-31,17289,TRUE,TRUE,34,34.9,Lakewood NJ,43436
USGS,12090500,"CLOVER CREEK NEAR TILLICUM, WA",47.14593158,-122.5104019,17110019,dv,00060,00003,1949-07-01,2020-01-30,11866,TRUE,TRUE,53,73.8,Lakewood WA,58995
USGS,12091100,"FLETT CREEK AT TACOMA, WA",47.1888583,-122.5201028,17110019,dv,00060,00003,1959-06-01,2020-01-29,20615,TRUE,TRUE,53,7.33,Lakewood WA,58995
USGS,12091300,"LEACH CREEK NEAR STEILACOOM, WA",47.1981538,-122.522625,17110019,dv,00060,00003,1957-02-01,2005-04-29,16549,TRUE,TRUE,53,6.56,Lakewood WA,58995
USGS,12091500,"CHAMBERS CREEK BL LEACH CREEK NEAR STEILACOOM, WA",47.1975982,-122.5287364,17110019,dv,00060,00003,1938-01-01,2020-01-30,17275,TRUE,TRUE,53,104,Lakewood WA,58995
USGS,01576500,"Conestoga River at Lancaster, PA",40.05009748,-76.2771798,02050306,dv,00060,00003,1928-10-01,2020-01-30,33055,TRUE,TRUE,42,324,Lancaster PA,54390
USGS,02307731,ALLEN CREEK NEAR LARGO FL,27.9419656,-82.7498233,03100206,dv,00060,00003,1947-02-12,2006-07-19,4236,TRUE,TRUE,12,1.7,Largo FL,71688
USGS,02283200,"PLANTATION RD CA AT S-33 NR FT LAUDERDALE, FL",26.13508588,-80.1947691,03090202,dv,00060,00003,1962-04-01,2004-09-29,15300,TRUE,TRUE,12,NA,Lauderhill FL,60308
USGS,06891500,"WAKARUSA R NR LAWRENCE, KS",38.9113923,-95.261084,10270104,dv,00060,00003,1929-04-27,2020-01-30,33151,TRUE,TRUE,20,425,Lawrence KS,83948
USGS,01094500,"NORTH NASHUA RIVER NEAR LEOMINSTER, MA",42.49506389,-71.7219333,01070004,dv,00060,00003,1935-09-17,2020-01-30,30817,TRUE,TRUE,25,110,Leominster MA,42479
USGS,01309500,MASSAPEQUA CREEK AT MASSAPEQUA NY,40.68888889,-73.4547222,02030202,dv,00060,00003,1936-12-12,2020-01-30,27304,TRUE,TRUE,36,38.6,Levittown NY,52390
USGS,08053000,"Elm Fk Trinity Rv nr Lewisville, TX",33.0456773,-96.9611173,12030103,dv,00060,00003,1949-03-01,2020-01-30,25538,TRUE,TRUE,48,1673,Lewisville TX,97496
USGS,06803500,"Salt Creek at 27th Street at Lincoln, Nebr.",40.84666667,-96.6816667,10200203,dv,00060,00003,1949-10-01,2020-01-30,25689,TRUE,TRUE,31,685,Lincoln NE,245301
USGS,01395000,Rahway River at Rahway NJ,40.61888889,-74.2833333,02030104,dv,00060,00003,1921-10-01,2020-01-31,35917,TRUE,TRUE,34,40.9,Linden NJ,39964
USGS,11325000,WOODBRIDGE CN A WOODBRIDGE CA,38.1524182,-121.3018925,18040012,dv,00060,00003,1926-04-28,2019-09-30,34124,TRUE,TRUE,06,NA,Lodi CA,64068
USGS,11325500,MOKELUMNE R A WOODBRIDGE CA,38.15852914,-121.3035592,18040012,dv,00060,00003,1924-06-01,2018-09-30,33491,TRUE,TRUE,06,661,Lodi CA,64068
USGS,10109000,"LOGAN RIVER ABOVE STATE DAM, NEAR LOGAN, UT",41.74326439,-111.78272,16010203,dv,00060,00003,1953-10-01,2020-01-30,24228,TRUE,TRUE,49,214,Logan UT,45262
USGS,10109001,COM F LOGAN R AB ST D AND CACHE HL CAN NR LOGAN UT,41.74437546,-111.7843867,16010203,dv,00060,00003,1921-10-01,2017-09-30,35064,TRUE,TRUE,49,214,Logan UT,45262
USGS,10109001,COM F LOGAN R AB ST D AND CACHE HL CAN NR LOGAN UT,41.74437546,-111.7843867,16010203,dv,00060,00003,1921-10-01,2020-01-30,35916,TRUE,TRUE,49,214,Logan UT,45262
USGS,11133000,SANTA YNEZ R A NARROWS NR LOMPOC CA,34.63609474,-120.424606,18060010,dv,00060,00003,1952-05-01,2020-01-30,23982,TRUE,TRUE,06,789,Lompoc CA,40924
USGS,11134000,SANTA YNEZ R A H ST NR LOMPOC CA,34.6683162,-120.4579411,18060010,dv,00060,00003,1946-10-01,2020-01-30,13621,TRUE,TRUE,06,815,Lompoc CA,40924
USGS,11134800,MIGUELITO C A LOMPOC CA,34.6316501,-120.4648857,18060010,dv,00060,00003,1970-10-01,2009-09-29,13733,TRUE,TRUE,06,11.6,Lompoc CA,40924
USGS,03292500,"SOUTH FORK BEARGRASS CREEK AT LOUISVILLE, KY",38.2114592,-85.7024613,05140101,dv,00060,00003,1939-12-12,2020-01-30,20819,TRUE,TRUE,21,17.2,Louisville KY,241072
USGS,01099500,"CONCORD R BELOW R MEADOW BROOK, AT LOWELL, MA",42.6367581,-71.3020047,01070005,dv,00060,00003,1936-12-16,2020-01-30,30361,TRUE,TRUE,25,400,Lowell MA,103085
USGS,01100000,"MERRIMACK RIVER BL CONCORD RIVER AT LOWELL, MA",42.64592464,-71.2983937,01070002,dv,00060,00003,1923-06-01,2020-01-30,35308,TRUE,TRUE,25,4635,Lowell MA,103085
USGS,08058900,"E Fk Trinity Rv at McKinney, TX",33.24400417,-96.6088797,12030106,dv,00060,00003,1975-10-01,2010-09-29,12783,TRUE,TRUE,48,164,MacKinney TX,108976
USGS,08058900,"E Fk Trinity Rv at McKinney, TX",33.24400417,-96.6088797,12030106,dv,00060,00003,1975-10-01,2010-09-29,12783,TRUE,TRUE,48,164,MacKinney TX,108976
USGS,01646500,"POTOMAC RIVER NEAR WASH, DC LITTLE FALLS PUMP STA",38.94977778,-77.12763889,02070008,dv,00060,00003,1930-03-01,2020-01-30,32842,TRUE,TRUE,24,11560,MacLean VA,39731
USGS,01646500,"POTOMAC RIVER NEAR WASH, DC LITTLE FALLS PUMP STA",38.94977778,-77.12763889,02070008,uv,00060,NA,1972-06-09,2020-01-31,17402,TRUE,TRUE,24,11560,MacLean VA,39731
USGS,01646502,"POTOMAC RIVER (ADJUSTED) NEAR WASH, DC",38.94977778,-77.12763889,02070008,dv,00060,00003,1930-03-01,2019-11-30,32781,TRUE,TRUE,24,11560,MacLean VA,39731
USGS,02213000,"OCMULGEE RIVER AT MACON, GA",32.8386111,-83.6205556,03070103,dv,00060,00003,1893-02-01,2020-01-30,40479,TRUE,TRUE,13,2240,Macon GA,93755
USGS,01092000,"MERRIMACK R NR GOFFS FALLS, BELOW MANCHESTER, NH",42.9481405,-71.4634002,01070002,dv,00060,00003,1936-11-21,2020-01-30,30386,TRUE,TRUE,33,3092,Manchester NH,110384
USGS,06887000,"BIG BLUE R NR MANHATTAN, KS",39.2372186,-96.5713918,10270205,dv,00060,00003,1950-10-01,2020-01-29,25323,TRUE,TRUE,20,9640,Manhattan KS,45671
USGS,01102500,"ABERJONA RIVER AT WINCHESTER, MA",42.4474568,-71.1380816,01090001,dv,00060,00003,1939-04-16,2020-01-30,29508,TRUE,TRUE,25,24.5,Medford MA,53579
USGS,14357500,"BEAR CREEK AT MEDFORD, OR",42.32401547,-122.8667057,17100308,dv,00060,00003,1915-03-01,2020-01-30,36776,TRUE,TRUE,41,289,Medford OR,70717
USGS,02249500,"CRANE CREEK AT MELBOURNE, FL",28.07946057,-80.6294983,03080202,dv,00060,00003,1951-04-01,2020-01-30,12502,TRUE,TRUE,12,12.6,Melbourne FL,77320
USGS,04156000,"TITTABAWASSEE RIVER AT MIDLAND, MI",43.59530477,-84.2355439,04080201,dv,00060,00003,1936-04-01,2020-01-30,30620,TRUE,TRUE,26,2400,Midland MI,42516
USGS,04087119,"HONEY CREEK AT WAUWATOSA, WI",43.0438333,-88.0051111,04040003,dv,00060,00003,1974-12-01,2020-01-30,7930,TRUE,TRUE,55,10.3,Milwaukee WI,575250
USGS,04087120,"MENOMONEE RIVER AT WAUWATOSA, WI",43.04555556,-87.9997222,04040003,dv,00060,00003,1961-10-01,2020-01-30,21269,TRUE,TRUE,55,123,Milwaukee WI,575250
USGS,04087120,"MENOMONEE RIVER AT WAUWATOSA, WI",43.04555556,-87.9997222,04040003,qw,00060,NA,1966-12-06,2012-01-23,39,TRUE,TRUE,55,123,Milwaukee WI,575250
USGS,02286200,"SNAKE CREEK CANAL AT NW67 AVE NR HIALEAH, FL",25.96425918,-80.310884,03090202,dv,00060,00003,1962-04-01,2011-10-15,17701,TRUE,TRUE,12,NA,Miramar FL,123116
USGS,12352500,Bitterroot River near Missoula MT,46.83173889,-114.054861,17010205,dv,00060,00003,1898-07-01,2020-01-30,13030,TRUE,TRUE,30,2824,Missoula MT,64391
USGS,11290000,TUOLUMNE R A MODESTO CA,37.627153,-120.9843777,18040009,dv,00060,00003,1895-01-01,2020-01-30,29890,TRUE,TRUE,06,1884,Modesto CA,221674
USGS,01392500,Second River at Belleville NJ,40.78805556,-74.1716667,02030103,dv,00060,00003,1937-05-26,2020-01-31,13188,TRUE,TRUE,34,11.6,Montclair NJ,39801
USGS,11101250,RIO HONDO AB WHITTIER NARROWS DAM CA,34.05834368,-118.0717348,18070105,dv,00060,00003,1956-03-01,2020-01-30,23346,TRUE,TRUE,06,91.2,Montebello CA,64727
USGS,11102300,RIO HONDO BL WHITTIER NARROWS DAM CA,34.0166788,-118.0884018,18070105,dv,00060,00003,1966-10-01,2020-01-27,19394,TRUE,TRUE,06,124,Montebello CA,64727
USGS,11102300,RIO HONDO BL WHITTIER NARROWS DAM CA,34.0166788,-118.0884018,18070105,dv,00060,00003,1966-10-01,2020-01-27,19394,TRUE,TRUE,06,124,Monterey Park CA,63766
USGS,02421000,CATOMA CREEK NEAR MONTGOMERY AL,32.30736239,-86.2994126,03150201,dv,00060,00003,1952-07-01,2020-01-30,23571,TRUE,TRUE,01,290,Montgomery AL,197653
USGS,04285500,"NORTH BRANCH WINOOSKI RIVER AT WRIGHTSVILLE, VT",44.29950278,-72.57872119,04150403,dv,00060,00003,1933-10-01,2020-01-30,31533,TRUE,TRUE,50,69.2,Montpelier VT,8003
USGS,04286000,"WINOOSKI RIVER AT MONTPELIER, VT",44.25672595,-72.59344318,04150403,dv,00060,00003,1914-07-01,2020-01-30,36792,TRUE,TRUE,50,397,Montpelier VT,8003
USGS,05529000,"DES PLAINES RIVER NEAR DES PLAINES, IL",42.0872222,-87.8872222,07120004,dv,00060,00003,1940-10-01,2020-01-30,28976,TRUE,TRUE,17,360,Mount Prospect IL,55100
USGS,05529500,"MC DONALD CREEK NEAR MOUNT PROSPECT, IL",42.09530499,-87.9128462,07120004,dv,00060,00003,1952-08-13,2020-01-30,24642,TRUE,TRUE,17,7.93,Mount Prospect IL,55100
USGS,05530000,"WELLER CREEK AT DES PLAINES, IL",42.04947275,-87.918123,07120004,dv,00060,00003,1950-10-01,2020-01-30,25324,TRUE,TRUE,17,13.2,Mount Prospect IL,55100
USGS,01301500,HUTCHINSON RIVER AT PELHAM NY,40.9111111,-73.8133333,02030102,dv,00060,00003,1944-10-01,2013-04-30,17843,TRUE,TRUE,36,6.04,Mount Vernon NY,68048
USGS,11166000,MATADERO C A PALO ALTO CA,37.4216062,-122.1355193,18050003,dv,00060,00003,1952-10-01,2017-11-06,23356,TRUE,TRUE,06,7.26,Mountain View CA,67788
USGS,03347000,"WHITE RIVER AT MUNCIE, IN",40.20390436,-85.3860543,05120201,dv,00060,00003,1931-04-01,2020-01-29,32446,TRUE,TRUE,18,241,Muncie IN,64771
USGS,11458350,TULUCAY C A NAPA CA,38.28574818,-122.2758066,18050002,dv,00060,00003,1971-10-01,2002-04-30,4537,TRUE,TRUE,06,12.6,Napa CA,77884
USGS,03431500,"CUMBERLAND RIVER AT NASHVILLE, TN",36.1614984,-86.7726764,05130202,dv,00060,00003,1892-10-01,2020-01-30,26411,TRUE,TRUE,47,12856,Nashville TN,523547
USGS,08168500,"Guadalupe Rv abv Comal Rv at New Braunfels, TX",29.7149465,-98.1100083,12100202,dv,00060,00003,1927-12-19,2020-01-30,33646,TRUE,TRUE,48,1518,New Braunfels TX,47533
USGS,08168710,"Comal Spgs at New Braunfels, TX",29.70605788,-98.1225085,12100202,dv,00060,00003,1927-12-19,2020-01-30,33555,TRUE,TRUE,48,NA,New Braunfels TX,47533
USGS,08169000,"Comal Rv at New Braunfels, TX",29.70640833,-98.1222083,12100202,dv,00060,00003,1927-12-19,2020-01-30,33616,TRUE,TRUE,48,130,New Braunfels TX,47533
USGS,08169500,"Guadalupe Rv at New Braunfels, TX",29.69800265,-98.1066748,12100202,dv,00060,00003,1915-01-27,2011-08-25,5042,TRUE,TRUE,48,1652,New Braunfels TX,47533
USGS,01301500,HUTCHINSON RIVER AT PELHAM NY,40.9111111,-73.8133333,02030102,dv,00060,00003,1944-10-01,2013-04-30,17843,TRUE,TRUE,36,6.04,New Rochelle NY,72865
USGS,01104200,"CHARLES RIVER AT WELLESLEY, MA",42.3164861,-71.227833,01090001,dv,00060,00003,1959-08-26,2020-01-30,22072,TRUE,TRUE,25,211,Newton MA,84969
USGS,11447360,ARCADE C NR DEL PASO HEIGHTS CA,38.64184848,-121.3827302,18020111,dv,00060,00003,1963-08-01,2020-01-30,14262,TRUE,TRUE,06,31.4,North Highlands CA,46156
USGS,11459500,NOVATO C A NOVATO CA,38.10769775,-122.5799815,18050002,dv,00060,00003,1946-10-01,2020-01-30,26785,TRUE,TRUE,06,17.6,Novato CA,49005
USGS,10137000,"WEBER RIVER AT OGDEN, UTAH",41.2277223,-111.988275,16020102,dv,00060,00003,1950-12-01,2020-01-30,4233,TRUE,TRUE,49,1670,Ogden UT,78572
USGS,12080010,"DESCHUTES RIVER AT E ST BRIDGE AT TUMWATER, WA",47.01176308,-122.9031949,17110016,dv,00060,00003,1945-05-01,2020-01-30,16770,TRUE,TRUE,53,162,Olympia WA,45403
USGS,06893300,"INDIAN C AT OVERLAND PARK, KS",38.9405621,-94.6713469,10300101,dv,00060,00003,1963-03-07,2020-01-30,20784,TRUE,TRUE,20,26.6,Overland Park KS,169520
USGS,06893350,"TOMAHAWK C NR OVERLAND PARK, KS",38.9061111,-94.64,10300101,dv,00060,00003,1974-09-20,2020-01-30,6060,TRUE,TRUE,20,20.5,Overland Park KS,169520
USGS,02307498,"LAKE TARPON CANAL AT S-551, NEAR OLDSMAR FL",28.05362833,-82.7109336,03100206,dv,00060,00003,1974-10-01,2020-01-30,12699,TRUE,TRUE,12,65,Palm Harbor FL,65500
USGS,10258000,TAHQUITZ C NR PALM SPRINGS CA,33.80501929,-116.5591816,18100201,dv,00060,00003,1947-10-01,2020-01-30,26054,TRUE,TRUE,06,16.9,Palm Springs CA,47434
USGS,10258500,PALM CYN C NR PALM SPRINGS CA,33.74502178,-116.5355709,18100201,dv,00060,00003,1930-02-01,2020-01-30,30772,TRUE,TRUE,06,93.1,Palm Springs CA,47434
USGS,10259000,ANDREAS C NR PALM SPRINGS CA,33.7600211,-116.5500155,18100201,dv,00060,00003,1948-10-01,2020-01-30,26054,TRUE,TRUE,06,8.65,Palm Springs CA,47434
USGS,11164500,SAN FRANCISQUITO C A STANFORD UNIVERSITY CA,37.42327257,-122.1894095,18050003,dv,00060,00003,1930-10-01,2020-01-30,29339,TRUE,TRUE,06,37.4,Palo Alto CA,56084
USGS,11166000,MATADERO C A PALO ALTO CA,37.4216062,-122.1355193,18050003,dv,00060,00003,1952-10-01,2017-11-06,23356,TRUE,TRUE,06,7.26,Palo Alto CA,56084
USGS,11336580,MORRISON C NR SACRAMENTO CA,38.49851847,-121.4527317,18020163,dv,00060,00003,1959-08-01,2017-11-27,17651,TRUE,TRUE,06,53.4,Parkway-South Sacramento CA,39984
USGS,01381000,Rockaway River below Reservoir at Boonton NJ,40.89694444,-74.3947222,02030103,dv,00060,00003,1906-01-01,2020-01-31,41395,TRUE,TRUE,34,119,Parsippany-Troy Hills Township NJ,52051
USGS,01391500,Saddle River at Lodi NJ,40.89027778,-74.0805556,02030103,dv,00060,00003,1923-10-01,2020-01-30,35186,TRUE,TRUE,34,54.6,Passaic NJ,69035
USGS,01114000,"MOSHASSUCK RIVER AT PROVIDENCE, RI",41.833989,-71.41061208,01090004,dv,00060,00003,1963-06-01,2020-01-30,20698,TRUE,TRUE,44,23.1,Pawtucket RI,75297
USGS,01101500,"IPSWICH RIVER AT SOUTH MIDDLETON, MA",42.56953869,-71.0269974,01090001,dv,00060,00003,1938-06-01,2020-01-30,29829,TRUE,TRUE,25,44.5,Peabody MA,50698
USGS,02286200,"SNAKE CREEK CANAL AT NW67 AVE NR HIALEAH, FL",25.96425918,-80.310884,03090202,dv,00060,00003,1962-04-01,2011-10-15,17701,TRUE,TRUE,12,NA,Pembroke Pines FL,160157
USGS,11070270,PERRIS VALLEY STORM DR A NUEVO RD NR PERRIS CA,33.80113024,-117.2061469,18070202,dv,00060,00003,1969-10-01,2020-01-30,12913,TRUE,TRUE,06,93.3,Perris CA,48555
USGS,11070270,PERRIS VALLEY STORM DR A NUEVO RD NR PERRIS CA,33.80113024,-117.2061469,18070202,uv,00060,NA,1970-11-29,2020-01-31,17960,TRUE,TRUE,06,93.3,Perris CA,48555
USGS,01467086,"Tacony Creek ab Adams Avenue, Philadelphia, PA",40.04261157,-75.1121191,02040203,dv,00060,00003,1965-10-01,2020-01-30,13683,TRUE,TRUE,42,16.7,Philadelphia PA,1439814
USGS,11102300,RIO HONDO BL WHITTIER NARROWS DAM CA,34.0166788,-118.0884018,18070105,dv,00060,00003,1966-10-01,2020-01-27,19394,TRUE,TRUE,06,124,Pico Rivera CA,66874
USGS,11075620,SANTA ANA R SPRD DIV BL IMPERIAL HWY NR ANA CA,33.85640444,-117.8008893,18070203,dv,00060,00003,1974-07-03,2001-09-29,5095,TRUE,TRUE,06,NA,Placentia CA,49679
USGS,11075720,CARBON C BL CARBON CYN DAM CA,33.91334748,-117.8425584,18070106,dv,00060,00003,1961-10-01,2020-01-30,21306,TRUE,TRUE,06,19.5,Placentia CA,49679
USGS,11089500,FULLERTON C BL FULLERTON DAM NR BREA CA,33.89584765,-117.8861706,18070106,dv,00060,00003,1941-10-01,2020-01-30,28611,TRUE,TRUE,06,4.94,Placentia CA,49679
USGS,01403540,Stony Brook at Watchung NJ,40.63638889,-74.45138889,02030105,dv,00060,00003,1974-10-01,2020-01-31,16559,TRUE,TRUE,34,5.51,Plainfield NJ,47769
USGS,11174600,ALAMO CN NR PLEASANTON CA,37.69444444,-121.9194444,18050004,dv,00060,00003,1979-08-30,2020-01-30,3411,TRUE,TRUE,06,39.5,Pleasanton CA,67119
USGS,11176200,ARROYO MOCHO NR PLEASANTON CA,37.6904857,-121.8732899,18050004,dv,00060,00003,1962-09-01,2019-05-31,9190,TRUE,TRUE,06,142,Pleasanton CA,67119
USGS,01105876,"EEL RIVER AT RT 3A NEAR PLYMOUTH, MA",41.94177039,-70.6225338,01090002,dv,00060,00003,1969-12-19,2020-01-30,5522,TRUE,TRUE,25,14.7,Plymouth MA,133313
USGS,13075500,PORTNEUF RIVER AT POCATELLO ID,42.87166667,-112.4680556,17040208,dv,00060,00003,1897-05-18,2020-01-30,40154,TRUE,TRUE,16,1256,Pocatello ID,50496
USGS,04106320,"WEST FORK PORTAGE CREEK NEAR OSHTEMO, MI",42.23531839,-85.6483389,04050003,dv,00060,00003,1972-05-01,2020-01-31,13670,TRUE,TRUE,26,13,Portage MI,46666
USGS,14211720,"WILLAMETTE RIVER AT PORTLAND, OR",45.5175,-122.6691667,17090012,dv,00060,00003,1972-10-01,2020-01-30,17283,TRUE,TRUE,41,11200,Portland OR,542751
USGS,14211720,"WILLAMETTE RIVER AT PORTLAND, OR",45.5175,-122.6691667,17090012,qw,00060,NA,1974-10-25,2015-11-17,467,TRUE,TRUE,41,11200,Portland OR,542751
USGS,09503000,"GRANITE CREEK NEAR PRESCOTT, AZ",34.56307975,-112.4448909,15060202,dv,00060,00003,1932-07-01,2020-01-30,14822,TRUE,TRUE,04,36.3,Prescott AZ,41432
USGS,01114000,"MOSHASSUCK RIVER AT PROVIDENCE, RI",41.833989,-71.41061208,01090004,dv,00060,00003,1963-06-01,2020-01-30,20698,TRUE,TRUE,44,23.1,Providence RI,178295
USGS,10163000,"PROVO RIVER AT PROVO, UT",40.2377318,-111.69937,16020203,dv,00060,00003,1903-10-01,2020-01-30,31174,TRUE,TRUE,49,673,Provo UT,105832
USGS,07106500,"FOUNTAIN CREEK AT PUEBLO, CO.",38.2877801,-104.6010849,11020003,dv,00060,00003,1922-01-01,2020-01-30,28394,TRUE,TRUE,08,925,Pueblo CO,104659
USGS,01105585,"TOWN BROOK AT QUINCY, MA",42.24787726,-70.9972703,01090001,dv,00060,00003,1972-09-11,2020-01-30,12923,TRUE,TRUE,25,4.11,Quincy MA,89347
USGS,04087240,"ROOT RIVER AT RACINE, WI",42.75138889,-87.8236111,04040002,dv,00060,00003,1963-08-22,2020-01-30,20616,TRUE,TRUE,55,190,Racine WI,78703
USGS,06414000,"RAPID CR AT RAPID CITY,SD",44.08551554,-103.241843,10120110,dv,00060,00003,1942-07-01,2020-01-30,28338,TRUE,TRUE,46,413,Rapid City SD,62302
USGS,01471000,"Tulpehocken Creek near Reading, PA",40.36898166,-75.9791015,02040203,dv,00060,00003,1950-10-01,2020-01-30,25324,TRUE,TRUE,42,211,Reading PA,79476
USGS,01471510,"Schuylkill River at Reading, PA",40.33163889,-75.9386667,02040203,dv,00060,00003,1914-10-01,2020-01-30,19933,TRUE,TRUE,42,880,Reading PA,79476
USGS,04166500,"RIVER ROUGE AT DETROIT, MI",42.3730923,-83.2546513,04090004,dv,00060,00003,1930-10-01,2020-01-30,32629,TRUE,TRUE,26,187,Redford MI,49542
USGS,12125200,"SAMMAMISH RIVER NEAR WOODINVILLE, WA",47.70343228,-122.1437349,17110012,dv,00060,00003,1965-02-01,2006-06-30,15125,TRUE,TRUE,53,159,Redmond WA,47662
USGS,10348000,"TRUCKEE RV AT RENO, NV",39.53018865,-119.7954684,16050102,dv,00060,00003,1906-10-01,2020-01-30,35232,TRUE,TRUE,32,1067,Reno NV,206626
USGS,12119000,"CEDAR RIVER AT RENTON, WA",47.4825999,-122.2034547,17110012,dv,00060,00003,1945-09-01,2020-01-30,27180,TRUE,TRUE,53,184,Renton WA,57369
USGS,11066460,SANTA ANA R A MWD CROSSING CA,33.96862566,-117.4483806,18070203,dv,00060,00003,1970-03-09,2020-01-30,18225,TRUE,TRUE,06,852,Riverside CA,306351
USGS,04161540,"PAINT CREEK AT ROCHESTER, MI",42.68836558,-83.1429886,04090003,dv,00060,00003,1959-10-01,2020-01-30,22037,TRUE,TRUE,26,70.9,Rochester Hills MI,68879
USGS,04161540,"PAINT CREEK AT ROCHESTER, MI",42.68836558,-83.1429886,04090003,qw,00060,NA,1960-07-19,2006-09-12,12,TRUE,TRUE,26,70.9,Rochester Hills MI,68879
USGS,04231600,"GENESEE RIVER AT FORD STREET BRIDGE, ROCHESTER NY",43.1417222,-77.6163056,04130003,dv,00060,00003,1904-04-01,2020-01-30,41709,TRUE,TRUE,36,2474,Rochester NY,209587
USGS,04232000,GENESEE RIVER AT ROCHESTER NY,43.1806176,-77.6275019,04130003,dv,00060,00003,1904-04-01,2005-09-29,36474,TRUE,TRUE,36,2482,Rochester NY,209587
USGS,02082585,"TAR RIVER AT NC 97 AT ROCKY MOUNT, NC",35.9547222,-77.7872222,03020101,dv,00060,00003,1976-08-01,2020-01-30,15886,TRUE,TRUE,37,925,Rocky Mount NC,56008
USGS,11087020,SAN GABRIEL R AB WHITTIER NARROWS DAM CA,34.03417767,-118.0381225,18070106,dv,00060,00003,1955-10-01,2020-01-30,21306,TRUE,TRUE,06,442,Rosemead CA,56542
USGS,11101250,RIO HONDO AB WHITTIER NARROWS DAM CA,34.05834368,-118.0717348,18070105,dv,00060,00003,1956-03-01,2020-01-30,23346,TRUE,TRUE,06,91.2,Rosemead CA,56542
USGS,04157000,"SAGINAW RIVER AT SAGINAW, MI",43.4128034,-83.9630294,04080206,qw,00060,NA,1967-03-31,2011-09-14,16,TRUE,TRUE,26,6060,Saginaw MI,56685
USGS,04157005,"SAGINAW RIVER AT HOLLAND AVENUE AT SAGINAW, MI",43.4219699,-83.951918,04080206,dv,00060,00003,1904-03-11,2020-01-30,11536,TRUE,TRUE,26,6060,Saginaw MI,56685
USGS,09413000,"SANTA CLARA RIVER AT ST. GEORGE, UT",37.07525867,-113.5930125,15010008,dv,00060,00003,1950-10-01,2020-01-30,15047,TRUE,TRUE,49,541,Saint George UT,63952
USGS,09413200,"VIRGIN RIVER NEAR BLOOMINGTON, UT",37.07,-113.5838889,15010010,dv,00060,00003,1977-09-16,2020-01-30,15477,TRUE,TRUE,49,3853,Saint George UT,63952
USGS,06818000,"Missouri River at St. Joseph, MO",39.75325,-94.8568333,10240011,dv,00060,00003,1928-10-01,2020-01-30,33358,TRUE,TRUE,29,426500,Saint Joseph MO,71282
USGS,06818000,"Missouri River at St. Joseph, MO",39.75325,-94.8568333,10240011,qw,00060,NA,1950-07-31,2013-12-03,1209,TRUE,TRUE,29,426500,Saint Joseph MO,71282
USGS,05331000,"MISSISSIPPI RIVER AT ST. PAUL, MN",44.9444444,-93.0881111,07010206,dv,00060,00003,1892-03-01,2020-01-30,45935,TRUE,TRUE,27,36800,Saint Paul MN,272469
USGS,14191000,"WILLAMETTE RIVER AT SALEM, OR",44.9442863,-123.0428742,17090007,dv,00060,00003,1909-10-01,2020-01-30,38015,TRUE,TRUE,41,7280,Salem OR,148942
USGS,08136000,"Concho Rv at San Angelo, TX",31.454606,-100.4106474,12090105,dv,00060,00003,1915-10-01,2020-01-30,38108,TRUE,TRUE,48,5542,San Angelo TX,88143
USGS,08177700,"Olmos Ck at Dresden Dr, San Antonio, TX",29.4991192,-98.5102958,12100301,dv,00060,00003,1968-06-07,2020-01-30,11606,TRUE,TRUE,48,21.2,San Antonio TX,1278171
USGS,11058500,E TWIN C NR ARROWHEAD SPRINGS CA,34.17917556,-117.2655982,18070203,dv,00060,00003,1919-12-27,2020-01-30,36233,TRUE,TRUE,06,8.8,San Bernardino CA,205743
USGS,11101250,RIO HONDO AB WHITTIER NARROWS DAM CA,34.05834368,-118.0717348,18070105,dv,00060,00003,1956-03-01,2020-01-30,23346,TRUE,TRUE,06,91.2,San Gabriel CA,41861
USGS,11169000,GUADALUPE R A SAN JOSE CA,37.3343859,-121.8994,18050003,dv,00060,00003,1929-10-01,2003-04-30,26875,TRUE,TRUE,06,146,San Jose CA,897883
USGS,11181040,SAN LORENZO C A SAN LORENZO CA,37.6840977,-122.1399649,18050004,dv,00060,00003,1967-10-01,2020-01-30,15253,TRUE,TRUE,06,44.6,San Leandro CA,80015
USGS,08170000,"San Marcos Spgs at San Marcos, TX",29.88910804,-97.9341718,12100203,dv,00060,00003,1956-05-26,2020-01-30,23217,TRUE,TRUE,48,NA,San Marcos TX,49051
USGS,08170500,"San Marcos Rv at San Marcos, TX",29.88910804,-97.9341718,12100203,dv,00060,00003,1915-07-01,2020-01-30,11440,TRUE,TRUE,48,48.9,San Marcos TX,49051
USGS,11460000,CORTE MADERA C A ROSS CA,37.96297947,-122.556922,18050002,dv,00060,00003,1951-02-22,2020-01-30,18846,TRUE,TRUE,06,18.1,San Rafael CA,55133
USGS,11182500,SAN RAMON C A SAN RAMON CA,37.772983,-121.9946825,18050001,dv,00060,00003,1952-10-01,2020-01-30,24593,TRUE,TRUE,06,5.89,San Ramon CA,46278
USGS,11077500,SANTIAGO C A SANTA ANA CA,33.7702946,-117.8845014,18070203,dv,00060,00003,1928-10-01,2020-01-30,33279,TRUE,TRUE,06,98.6,Santa Ana CA,344086
USGS,11078000,SANTA ANA R A SANTA ANA CA,33.75112815,-117.9083906,18070203,dv,00060,00003,1923-02-01,2020-01-30,35063,TRUE,TRUE,06,1700,Santa Ana CA,344086
USGS,11119750,MISSION C NR MISSION ST NR SANTA BARBARA CA,34.4275,-119.7252778,18060013,dv,00060,00003,1970-10-01,2020-01-30,17553,TRUE,TRUE,06,8.38,Santa Barbara CA,86115
USGS,11107860,BOUQUET C NR SAUGUS CA,34.44888388,-118.507029,18070102,dv,00060,00003,1970-10-01,2003-09-29,2458,TRUE,TRUE,06,51.6,Santa Clarita CA,172730
USGS,11161000,SAN LORENZO R A SANTA CRUZ CA,36.9907832,-122.0319076,18060015,dv,00060,00003,1952-10-01,2020-01-30,14731,TRUE,TRUE,06,115,Santa Cruz CA,54583
USGS,11466200,SANTA ROSA C A SANTA ROSA CA,38.4365787,-122.7247096,18010110,dv,00060,00003,1939-10-01,2020-01-30,4640,TRUE,TRUE,06,57,Santa Rosa CA,156669
USGS,11022480,SAN DIEGO R A MAST RD NR SANTEE CA,32.84032675,-117.0258627,18070304,dv,00060,00003,1912-05-01,2020-01-30,38533,TRUE,TRUE,06,368,Santee CA,52505
USGS,01589500,"SAWMILL CREEK AT GLEN BURNIE, MD",39.17,-76.6306111,02060003,dv,00060,00003,1944-06-01,2020-01-30,16325,TRUE,TRUE,24,4.97,Severn MD,43718
USGS,04086000,"SHEBOYGAN RIVER AT SHEBOYGAN, WI",43.74138889,-87.7521111,04030101,dv,00060,00003,1916-06-30,2020-01-30,28335,TRUE,TRUE,55,418,Sheboygan WI,48123
USGS,04086000,"SHEBOYGAN RIVER AT SHEBOYGAN, WI",43.74138889,-87.7521111,04030101,qw,00060,NA,1964-11-03,2009-03-09,75,TRUE,TRUE,55,418,Sheboygan WI,48123
USGS,01648000,"ROCK CREEK AT SHERRILL DRIVE WASHINGTON, DC",38.9725,-77.04,02070010,dv,00060,00003,1929-10-01,2020-01-30,32994,TRUE,TRUE,11,62.2,Silver Spring MD,78119
USGS,06486000,"Missouri River at Sioux City, IA",42.4858276,-96.4139184,10230001,dv,00060,00003,1928-10-01,2020-01-30,30801,TRUE,TRUE,31,314600,Sioux City IA,82863
USGS,06486000,"Missouri River at Sioux City, IA",42.4858276,-96.4139184,10230001,qw,00060,NA,1971-10-08,2012-11-15,69,TRUE,TRUE,31,314600,Sioux City IA,82863
USGS,06600000,"Perry Creek at 38th Street at Sioux City, IA",42.53488295,-96.4107236,10230001,dv,00060,00003,1945-10-01,2004-09-29,17287,TRUE,TRUE,19,65.1,Sioux City IA,82863
USGS,06482000,BIG SIOUX R AT SIOUX FALLS SD,43.5010864,-96.748384,10170203,dv,00060,00003,1943-09-01,2020-01-30,11837,TRUE,TRUE,46,4642,Sioux Falls SD,143534
USGS,06482020,"BIG SIOUX R AT NORTH CLIFF AVE AT SIOUX FALLS,SD",43.56700265,-96.7113274,10170203,dv,00060,00003,1971-10-01,2020-01-30,17654,TRUE,TRUE,46,4662,Sioux Falls SD,143534
USGS,05536000,"NORTH BRANCH CHICAGO RIVER AT NILES, IL",42.0122222,-87.7958333,07120003,dv,00060,00003,1950-10-01,2020-01-30,25324,TRUE,TRUE,17,100,Skokie IL,64350
USGS,05536000,"NORTH BRANCH CHICAGO RIVER AT NILES, IL",42.0122222,-87.7958333,07120003,uv,00060,NA,1950-10-01,2020-01-31,25324,TRUE,TRUE,17,100,Skokie IL,64350
USGS,04166100,"RIVER ROUGE AT SOUTHFIELD, MI",42.4475356,-83.29743079,04090004,dv,00060,00003,1958-04-01,2020-01-30,22585,TRUE,TRUE,26,87.9,Southfield MI,76506
USGS,04166200,"EVANS DITCH AT SOUTHFIELD, MI",42.45781337,-83.26743,04090004,dv,00060,00003,1958-09-01,2009-09-30,18658,TRUE,TRUE,26,9.49,Southfield MI,76506
USGS,10348000,"TRUCKEE RV AT RENO, NV",39.53018865,-119.7954684,16050102,dv,00060,00003,1906-10-01,2020-01-30,35232,TRUE,TRUE,32,1067,Sparks NV,88518
USGS,10348200,"TRUCKEE RV NR SPARKS, NV",39.51761667,-119.7416444,16050102,dv,00060,00003,1977-04-20,2020-01-30,15626,TRUE,TRUE,32,1070,Sparks NV,88518
USGS,10348300,"N TRUCKEE DRAIN AT KLEPPE LN NR SPARKS, NV",39.52657819,-119.7093535,16050102,dv,00060,00003,1976-07-22,2017-05-31,9405,TRUE,TRUE,32,NA,Sparks NV,88518
USGS,10349980,"STEAMBOAT CK AT CLEANWATER WAY NR RENO, NV",39.5129672,-119.712409,16050102,dv,00060,00003,1976-07-29,2020-01-30,14781,TRUE,TRUE,32,244,Sparks NV,88518
USGS,10350000,"TRUCKEE RV AT VISTA, NV",39.5204672,-119.7010198,16050102,dv,00060,00003,1899-08-18,2020-01-30,33860,TRUE,TRUE,32,1431,Sparks NV,88518
USGS,12422000,"SPOKANE RIVER BELOW GREEN ST AT SPOKANE, WA",47.67905905,-117.3646571,17010305,dv,00060,00003,1948-12-01,2020-01-30,2251,TRUE,TRUE,53,4220,Spokane WA,197513
USGS,12422500,"SPOKANE RIVER AT SPOKANE, WA",47.6593354,-117.4491029,17010305,dv,00060,00003,1891-04-01,2020-01-30,47056,TRUE,TRUE,53,4290,Spokane WA,197513
USGS,12424000,"HANGMAN CREEK AT SPOKANE, WA",47.6526688,-117.449658,17010306,dv,00060,00003,1948-04-01,2020-01-30,26111,TRUE,TRUE,53,689,Spokane WA,197513
USGS,05577500,"SPRING CREEK AT SPRINGFIELD, IL",39.8153284,-89.698713,07130008,dv,00060,00003,1948-01-21,2020-01-30,26097,TRUE,TRUE,17,107,Springfield IL,116725
USGS,07052000,"Wilson Creek at Springfield, MO",37.1869722,-93.3313333,11010002,dv,00060,00003,1932-05-07,2020-01-30,11403,TRUE,TRUE,29,17.8,Springfield MO,150128
USGS,03267900,Mad River at St Paris Pike at Eagle City OH,39.9642265,-83.8315962,05080001,dv,00060,00003,1965-10-01,2020-01-30,18730,TRUE,TRUE,39,310,Springfield OH,63915
USGS,01209901,"RIPPOWAM RIVER AT STAMFORD, CT.",41.0661111,-73.5492722,01100006,dv,00060,00003,1977-09-17,2020-01-30,8526,TRUE,TRUE,09,34,Stamford CT,122011
USGS,04161820,"CLINTON RIVER AT STERLING HEIGHTS, MI",42.6144781,-83.02659329,04090003,dv,00060,00003,1978-10-01,2020-01-30,9163,TRUE,TRUE,26,309,Sterling Heights MI,127027
USGS,04163400,"PLUM BROOK AT UTICA, MI",42.60142277,-83.0713165,04090003,dv,00060,00003,1965-07-01,2020-01-30,19511,TRUE,TRUE,26,16.5,Sterling Heights MI,127027
USGS,04240010,"ONONDAGA CREEK AT SPENCER STREET, SYRACUSE NY",43.0575,-76.1625,04140201,dv,00060,00003,1970-09-01,2020-01-30,18049,TRUE,TRUE,36,110,Syracuse NY,140793
USGS,04240100,HARBOR BROOK AT SYRACUSE NY,43.0358333,-76.1816667,04140201,dv,00060,00003,1959-06-19,2020-01-30,21769,TRUE,TRUE,36,10,Syracuse NY,140793
USGS,04240105,"HARBOR BROOK AT HIAWATHA BOULEVARD, SYRACUSE NY",43.0561111,-76.185,04140201,dv,00060,00003,1970-10-01,2020-01-30,17652,TRUE,TRUE,36,12.1,Syracuse NY,140793
USGS,04240120,"LEY CREEK AT PARK STREET, SYRACUSE NY",43.0772222,-76.17027778,04140201,dv,00060,00003,1970-09-01,2020-01-30,17252,TRUE,TRUE,36,29.9,Syracuse NY,140793
USGS,04245236,"MEADOW BROOK AT HURLBURT RD, SYRACUSE NY",43.04166667,-76.10027778,04140202,dv,00060,00003,1970-12-01,2007-09-29,11574,TRUE,TRUE,36,3.06,Syracuse NY,140793
USGS,12091200,"LEACH CREEK NEAR FIRCREST, WA",47.2214873,-122.5092916,17110019,dv,00060,00003,1957-03-01,2020-01-30,22321,TRUE,TRUE,53,4.73,Tacoma WA,197621
USGS,01109060,"THREEMILE RIVER AT NORTH DIGHTON, MA",41.8662122,-71.12282369,01090004,dv,00060,00003,1966-07-01,2020-01-30,19572,TRUE,TRUE,25,84.3,Taunton MA,57377
USGS,11043000,MURRIETA C A TEMECULA CA,33.47975066,-117.1439203,18070302,dv,00060,00003,1930-10-01,2020-01-30,32628,TRUE,TRUE,06,222,Temecula CA,90347
USGS,11044000,SANTA MARGARITA R NR TEMECULA CA,33.4739175,-117.1422536,18070302,dv,00060,00003,1923-02-01,2020-01-30,35428,TRUE,TRUE,06,588,Temecula CA,90347
USGS,03341500,"WABASH RIVER AT TERRE HAUTE, IN",39.4657222,-87.4195,05120111,dv,00060,00003,1927-10-01,2020-01-30,33725,TRUE,TRUE,18,12265,Terre Haute IN,56544
USGS,08068400,"Panther Br at Gosling Rd, The Woodlands, TX",30.192159,-95.4838288,12040102,dv,00060,00003,1974-08-01,2020-01-30,8069,TRUE,TRUE,48,25.9,The Woodlands TX,80285
USGS,08068450,"Panther Br nr Spring, TX",30.1343832,-95.4777175,12040102,dv,00060,00003,1972-04-01,2020-01-30,9069,TRUE,TRUE,48,34.5,The Woodlands TX,80285
USGS,04177000,"Ottawa River at University of Toledo, Toledo OH",41.65968056,-83.6125472,04100001,dv,00060,00003,1945-03-16,2020-01-29,17181,TRUE,TRUE,39,150,Toledo OH,305292
USGS,06889000,"KANSAS R AT TOPEKA, KS",39.0666666,-95.6497028,10270102,dv,00060,00003,1917-06-12,2020-01-30,37418,TRUE,TRUE,20,56720,Topeka KS,121229
USGS,02307000,ROCKY CREEK NEAR SULPHUR SPRINGS FL,28.03696237,-82.5759304,03100206,dv,00060,00003,1953-01-01,2020-01-30,24501,TRUE,TRUE,12,35,Town'n'Country FL,80599
USGS,01585200,"WEST BRANCH HERRING RUN AT IDLEWYLDE, MD",39.37363889,-76.5843333,02060003,dv,00060,00003,1957-07-01,2020-01-30,19357,TRUE,TRUE,24,2.13,Towson MD,54075
USGS,01589440,"JONES FALLS AT SORRENTO, MD",39.3917222,-76.6609444,02060003,dv,00060,00003,1966-04-01,2020-01-30,16740,TRUE,TRUE,24,25.2,Towson MD,54075
USGS,01463500,Delaware River at Trenton NJ,40.22166667,-74.7780556,02040105,dv,00060,00003,1912-10-01,2020-01-31,39204,TRUE,TRUE,34,6780,Trenton NJ,84653
USGS,01463500,Delaware River at Trenton NJ,40.22166667,-74.7780556,02040105,qw,00060,NA,1944-10-01,2014-08-11,701,TRUE,TRUE,34,6780,Trenton NJ,84653
USGS,01464000,Assunpink Creek at Trenton NJ,40.22416667,-74.7491667,02040105,dv,00060,00003,1923-10-01,2020-01-31,35187,TRUE,TRUE,34,90.6,Trenton NJ,84653
USGS,01358000,HUDSON RIVER AT GREEN ISLAND NY,42.7522222,-73.68888889,02020003,dv,00060,00003,1946-02-21,2020-01-30,26047,TRUE,TRUE,36,8090,Troy NY,47993
USGS,02037000,"JAMES RIVER AND KANAWHA CANAL NEAR RICHMOND, VA",37.5645912,-77.5741546,02080205,dv,00060,00003,1936-10-01,2020-01-30,30436,TRUE,TRUE,51,66.6,Tuckahoe VA,43996
USGS,02037500,"JAMES RIVER NEAR RICHMOND, VA",37.5632022,-77.5469314,02080205,dv,00060,00003,1934-10-01,2020-01-30,31168,TRUE,TRUE,51,6753,Tuckahoe VA,43996
USGS,11179000,ALAMEDA C NR NILES CA,37.58715679,-121.960793,18050004,dv,00060,00003,1891-01-01,2020-01-30,47146,TRUE,TRUE,06,633,Union City CA,70125
USGS,11180500,DRY C A UNION CITY CA,37.6060452,-122.0238504,18050004,dv,00060,00003,1916-10-01,2020-01-30,23314,TRUE,TRUE,06,9.39,Union City CA,70125
USGS,11180700,ALAMEDA C FLOOD CHANNEL A UNION CITY CA,37.58576818,-122.0482955,18050004,dv,00060,00003,1958-10-01,2020-01-30,22402,TRUE,TRUE,06,NA,Union City CA,70125
USGS,01393450,Elizabeth River at Ursino Lake at Elizabeth NJ,40.675,-74.2219444,02030104,dv,00060,00003,1921-10-01,2020-01-31,35917,TRUE,TRUE,34,16.9,Union NJ,57198
USGS,01394500,Rahway River near Springfield NJ,40.6875,-74.3116667,02030104,dv,00060,00003,1938-10-01,2020-01-30,29707,TRUE,TRUE,34,25.5,Union NJ,57198
USGS,03337000,"BONEYARD CREEK AT URBANA, IL",40.1111428,-88.2264375,05120109,dv,00060,00003,1948-07-15,2020-01-30,26132,TRUE,TRUE,17,4.46,Urbana IL,39834
USGS,03337000,"BONEYARD CREEK AT URBANA, IL",40.1111428,-88.2264375,05120109,uv,00060,NA,1979-07-25,2020-01-31,14800,TRUE,TRUE,17,4.46,Urbana IL,39834
USGS,02317755,"WITHLACOOCHEE RIVER AT US 41 NEAR VALDOSTA, GA",30.89269959,-83.318765,03110203,dv,00060,00003,1976-10-20,2019-08-29,2516,TRUE,TRUE,13,537,Valdosta GA,45909
USGS,14144700,"COLUMBIA RIVER AT VANCOUVER, WA",45.62067265,-122.6734306,17080003,dv,00060,00003,1963-10-01,2020-01-30,3890,TRUE,TRUE,53,241000,Vancouver WA,161034
USGS,08176500,"Guadalupe Rv at Victoria, TX",28.7930456,-97.0130429,12100204,dv,00060,00003,1934-11-04,2020-01-30,31134,TRUE,TRUE,48,5198,Victoria TX,62296
USGS,08095600,"Bosque Rv nr Waco, TX",31.60127597,-97.1936165,12060203,qw,00060,NA,1962-01-18,2008-08-13,23,TRUE,TRUE,48,1656,Waco TX,119911
USGS,01104850,"MINE BROOK AT WALPOLE, MA",42.1539873,-71.2639436,01090001,dv,00060,00003,1967-06-27,2009-03-03,1358,TRUE,TRUE,25,6,Walpole MA,45127
USGS,01105000,"NEPONSET RIVER AT NORWOOD, MA",42.1775987,-71.2008863,01090001,dv,00060,00003,1939-10-01,2020-01-30,29342,TRUE,TRUE,25,34.7,Walpole MA,45127
USGS,01104500,"CHARLES RIVER AT WALTHAM, MA",42.37231857,-71.2336668,01090001,dv,00060,00003,1931-08-04,2020-01-30,32322,TRUE,TRUE,25,251,Waltham MA,58407
USGS,01104500,"CHARLES RIVER AT WALTHAM, MA",42.37231857,-71.2336668,01090001,uv,00060,NA,1976-02-01,2020-01-31,16070,TRUE,TRUE,25,251,Waltham MA,58407
USGS,04160900,"CLINTON RIVER NEAR DRAYTON PLAINS, MI",42.6603092,-83.3902164,04090003,dv,00060,00003,1959-10-01,2009-09-29,18262,TRUE,TRUE,26,79.2,Waterford MI,76204
USGS,05464000,"Cedar River at Waterloo, IA",42.4955419,-92.3343516,07080205,dv,00060,00003,1940-10-01,2020-01-30,28975,TRUE,TRUE,19,5146,Waterloo IA,65260
USGS,11159200,CORRALITOS C A FREEDOM CA,36.9393968,-121.7705065,18060002,dv,00060,00003,1956-10-01,2020-01-30,23130,TRUE,TRUE,06,27.8,Watsonville CA,45659
USGS,11159500,PAJARO R A WATSONVILLE CA,36.9056111,-121.7518889,18060002,dv,00060,00003,1911-10-01,2020-01-30,1819,TRUE,TRUE,06,1272,Watsonville CA,45659
USGS,05543830,"FOX RIVER AT WAUKESHA, WI",43.0047222,-88.2436111,07120006,dv,00060,00003,1963-01-01,2020-01-30,20842,TRUE,TRUE,55,126,Waukesha WI,68725
USGS,04087088,"UNDERWOOD CREEK AT WAUWATOSA, WI",43.0547222,-88.0461111,04040003,dv,00060,00003,1974-11-01,2020-01-30,16306,TRUE,TRUE,55,18.1,Wauwatosa WI,45076
USGS,04087088,"UNDERWOOD CREEK AT WAUWATOSA, WI",43.0547222,-88.0461111,04040003,uv,00060,NA,1978-05-13,2020-01-31,15238,TRUE,TRUE,55,18.1,Wauwatosa WI,45076
USGS,04087119,"HONEY CREEK AT WAUWATOSA, WI",43.0438333,-88.0051111,04040003,dv,00060,00003,1974-12-01,2020-01-30,7930,TRUE,TRUE,55,10.3,Wauwatosa WI,45076
USGS,04087120,"MENOMONEE RIVER AT WAUWATOSA, WI",43.04555556,-87.9997222,04040003,dv,00060,00003,1961-10-01,2020-01-30,21269,TRUE,TRUE,55,123,Wauwatosa WI,45076
USGS,04087120,"MENOMONEE RIVER AT WAUWATOSA, WI",43.04555556,-87.9997222,04040003,qw,00060,NA,1966-12-06,2012-01-23,39,TRUE,TRUE,55,123,Wauwatosa WI,45076
USGS,01388500,Pompton River at Pompton Plains NJ,40.9697222,-74.2819444,02030103,dv,00060,00003,1903-03-01,2020-01-31,29557,TRUE,TRUE,34,355,Wayne NJ,58667
USGS,04087119,"HONEY CREEK AT WAUWATOSA, WI",43.0438333,-88.0051111,04040003,dv,00060,00003,1974-12-01,2020-01-30,7930,TRUE,TRUE,55,10.3,West Allis WI,58958
USGS,04087120,"MENOMONEE RIVER AT WAUWATOSA, WI",43.04555556,-87.9997222,04040003,dv,00060,00003,1961-10-01,2020-01-30,21269,TRUE,TRUE,55,123,West Allis WI,58958
USGS,04087120,"MENOMONEE RIVER AT WAUWATOSA, WI",43.04555556,-87.9997222,04040003,qw,00060,NA,1966-12-06,2012-01-23,39,TRUE,TRUE,55,123,West Allis WI,58958
USGS,01308000,SAMPAWAMS CREEK AT BABYLON NY,40.70416667,-73.31388889,02030202,dv,00060,00003,1944-10-01,2019-12-30,27119,TRUE,TRUE,36,22.7,West Babylon NY,43595
USGS,01308500,CARLLS RIVER AT BABYLON NY,40.7086111,-73.3283333,02030202,dv,00060,00003,1944-10-01,2020-01-30,27515,TRUE,TRUE,36,35.4,West Babylon NY,43595
USGS,05484800,"Walnut Creek at Des Moines, IA",41.5872114,-93.7032762,07100006,dv,00060,00003,1971-10-01,2020-01-30,17654,TRUE,TRUE,19,78.4,West Des Moines IA,57126
USGS,01191000,"NORTH BRANCH PARK RIVER AT HARTFORD, CT",41.78443889,-72.7080556,01080205,dv,00060,00003,1936-11-01,2020-01-30,20354,TRUE,TRUE,09,26.8,West Hartford CT,67156
USGS,04214500,BUFFALO CREEK AT GARDENVILLE NY,42.8547222,-78.755,04120103,dv,00060,00003,1938-10-01,2020-01-30,27879,TRUE,TRUE,36,142,West Seneca NY,44418
USGS,04215500,CAZENOVIA CREEK AT EBENEZER NY,42.8297222,-78.775,04120103,dv,00060,00003,1940-06-24,2020-01-30,29074,TRUE,TRUE,36,135,West Seneca NY,44418
USGS,01105585,"TOWN BROOK AT QUINCY, MA",42.24787726,-70.9972703,01090001,dv,00060,00003,1972-09-11,2020-01-30,12923,TRUE,TRUE,25,4.11,Weymouth MA,54444
USGS,01105600,"OLD SWAMP RIVER NEAR SOUTH WEYMOUTH, MA",42.1903779,-70.9447679,01090001,dv,00060,00003,1966-05-20,2020-01-30,19614,TRUE,TRUE,25,4.5,Weymouth MA,54444
USGS,01650500,"NORTHWEST BRANCH ANACOSTIA RIVER NR COLESVILLE, MD",39.06566667,-77.0293333,02070010,dv,00060,00003,1923-10-01,2020-01-30,30015,TRUE,TRUE,24,21,Wheaton-Glenmont MD,61095
USGS,07312500,"Wichita Rv at Wichita Falls, TX",33.90954178,-98.5336663,11130206,dv,00060,00003,1938-04-01,2020-01-30,29890,TRUE,TRUE,48,3140,Wichita Falls TX,100616
USGS,07312500,"Wichita Rv at Wichita Falls, TX",33.90954178,-98.5336663,11130206,qw,00060,NA,1966-01-11,2019-07-09,32,TRUE,TRUE,48,3140,Wichita Falls TX,100616
USGS,07144300,"ARKANSAS R AT WICHITA, KS",37.64334849,-97.3353227,11030013,dv,00060,00003,1934-10-01,2020-01-30,31168,TRUE,TRUE,20,40490,Wichita KS,356051
USGS,01536500,"Susquehanna River at Wilkes-Barre, PA",41.2509149,-75.8807518,02050107,dv,00060,00003,1899-04-01,2020-01-30,44134,TRUE,TRUE,42,9960,Wilkes-Barre PA,40242
USGS,01477800,"SHELLPOT CREEK AT WILMINGTON, DE",39.7609722,-75.5186944,02040205,dv,00060,00003,1945-12-01,2020-01-30,27089,TRUE,TRUE,10,7.46,Wilmington DE,71065
USGS,01481500,"BRANDYWINE CREEK AT WILMINGTON, DE",39.7695,-75.5766944,02040205,dv,00060,00003,1946-10-01,2020-01-30,26785,TRUE,TRUE,10,314,Wilmington DE,71065
USGS,01112500,"BLACKSTONE RIVER AT WOONSOCKET, RI",42.0064871,-71.5025613,01090003,dv,00060,00003,1929-02-22,2020-01-30,33214,TRUE,TRUE,44,416,Woonsocket RI,46297
USGS,01301500,HUTCHINSON RIVER AT PELHAM NY,40.9111111,-73.8133333,02030102,dv,00060,00003,1944-10-01,2013-04-30,17843,TRUE,TRUE,36,6.04,Yonkers NY,198045
USGS,11075620,SANTA ANA R SPRD DIV BL IMPERIAL HWY NR ANA CA,33.85640444,-117.8008893,18070203,dv,00060,00003,1974-07-03,2001-09-29,5095,TRUE,TRUE,06,NA,Yorba Linda CA,65932
USGS,03098500,Mill Creek at Youngstown OH,41.07200276,-80.69035408,05030103,dv,00060,00003,1943-10-01,2000-09-29,10713,TRUE,TRUE,39,66.3,Youngstown OH,76590
USGS,09529420,"SOUTH GILA TERMINAL CANAL WASTEWAY NR YUMA, AZ",32.693659,-114.58134,15030107,dv,00060,00003,1966-10-01,2020-01-30,19115,TRUE,TRUE,04,NA,Yuma AZ,85720
USGS,09529440,"SOUTH GILA PUMP OUTLET CHANNEL NO 4 NEAR YUMA, AZ",32.71282513,-114.5980072,15030107,dv,00060,00003,1966-10-01,2016-09-29,17897,TRUE,TRUE,04,NA,Yuma AZ,85720
